{"last_update":1480688515,"atms":[{"id":57979,"name":"Банк \"Открытие\"","rur":true,"usd":false,"eur":false,"hours":"Пн-Пт: 09.30-20.00, Сб-Вс: выходной","address":"Ул. Баррикадная, Д.19, Стр.1","lat":55.760292,"lon":37.57987,"hidden":false,"type":"open_office"},{"id":56856,"name":"Банк \"Траст\"(Офис Банка)","rur":true,"usd":false,"eur":false,"hours":"пн.-пт.: 09:00-18:00, сб.-вс.: выходной","address":"Ул. Исаева, Д.6","lat":44.70604,"lon":37.78436,"hidden":true,"type":"open_office"},{"id":62206,"name":"Банк \"Открытие\"(Банкомат Банк Открытие, Азс Лукойл)","rur":true,"usd":false,"eur":false,"hours":"ежедневно: круглосуточно","address":"Ул. Степана Кувыкина, Д. 43","lat":54.71227,"lon":56.00052,"hidden":false,"type":"open_office"},{"id":62207,"name":"Банк \"Открытие\"(Банкомат Банк Открытие, Азс Лукойл)","rur":true,"usd":false,"eur":false,"hours":"ежедневно: круглосуточно","address":"Московская Область, П. Совхоза Останкино, Шоссе Рогачевское, 10 Км","lat":56.04661,"lon":37.41773,"hidden":false,"type":"open_office"},{"id":62209,"name":"Банк \"Открытие\"(Банкомат Банк Открытие, Административное Здание Ифнс)","rur":true,"usd":false,"eur":false,"hours":"ежедневно: 06:00-20:00","address":"Ул. Нефтяников, 33","lat":65.99469,"lon":57.55899,"hidden":false,"type":"open_office"},{"id":62210,"name":"Банк \"Открытие\"(Банкомат Банк Открытие, Азс Лукойл)","rur":true,"usd":false,"eur":false,"hours":"ежедневно: круглосуточно","address":"Ул. Промышленная, 21","lat":66.01807,"lon":57.53938,"hidden":false,"type":"open_office"},{"id":59450,"name":"Банк \"Открытие\"(Банкомат Банк Открытие, Офис Банка)","rur":true,"usd":false,"eur":false,"hours":"по режиму работы офиса","address":"Свято-Троицкий Бульвар, Д. 1","lat":50.59512,"lon":36.58516,"hidden":false,"type":"open_office"},{"id":62211,"name":"Банк \"Открытие\"(Банкомат Банк Открытие, Азс Химпродукт)","rur":true,"usd":false,"eur":false,"hours":"ежедневно: круглосуточно","address":"Объездное Шоссе, 20","lat":57.03781,"lon":54.02964,"hidden":false,"type":"open_office"},{"id":59481,"name":"Банк \"Открытие\"(Банкомат Банк Открытие, Офис Банка)","rur":true,"usd":false,"eur":false,"hours":"ежедневно: круглосуточно","address":"Проспект Им. В.И. Ленина, Д. 22а","lat":48.7061,"lon":44.5125,"hidden":false,"type":"open_office"},{"id":62215,"name":"Банк \"Открытие\"(Банкомат Банк Открытие, Азс Лукойл)","rur":true,"usd":false,"eur":false,"hours":"ежедневно: круглосуточно","address":"Трасса Красндар-Нворссийск, 96 Км (Слева)","lat":44.87205,"lon":38.12411,"hidden":false,"type":"open_office"},{"id":62216,"name":"Банк \"Открытие\"(Банкомат Банк Открытие, Азс Лукойл)","rur":true,"usd":false,"eur":false,"hours":"ежедневно: круглосуточно","address":"А-Д Крымск-Джегинка, 6-Й Км","lat":44.95302,"lon":37.9738,"hidden":false,"type":"open_office"},{"id":62218,"name":"Банк \"Открытие\"(Банкомат Банк Открытие, Дальневосточный Государственный Гуманитарный Университет)","rur":true,"usd":false,"eur":false,"hours":"ежедневно: 08:00-22:00","address":"Карла-Маркса Ул., Д. 68","lat":48.48639,"lon":135.08091,"hidden":false,"type":"open_office"},{"id":62220,"name":"Банк \"Открытие\"(Банкомат Банк Открытие, Бизнес Центр, 2 Этаж )","rur":true,"usd":false,"eur":false,"hours":"ежедневно: 09:00-22:00","address":"Ул. Поморская, 5","lat":64.53528,"lon":40.52502,"hidden":false,"type":"open_office"},{"id":62221,"name":"Банк \"Открытие\"(Банкомат Банк Открытие, Азс Лукойл)","rur":true,"usd":false,"eur":false,"hours":"ежедневно: круглосуточно","address":"Шоссе Архангельское, 76","lat":64.5697,"lon":39.7991,"hidden":false,"type":"open_office"},{"id":62222,"name":"Банк \"Открытие\"(Банкомат Банк Открытие, Азс Лукойл)","rur":true,"usd":false,"eur":false,"hours":"ежедневно: круглосуточно","address":"Ул. Аэропортовское Шоссе, 5","lat":46.34951,"lon":48.03154,"hidden":false,"type":"open_office"},{"id":62223,"name":"Банк \"Открытие\"(Банкомат Банк Открытие, Офис Лукойл)","rur":true,"usd":false,"eur":false,"hours":"ежедневно: 08:00-17:00","address":"Ул. Августовская, 11/В","lat":46.37501,"lon":48.08626,"hidden":false,"type":"open_office"},{"id":62224,"name":"Банк \"Открытие\"(Банкомат Банк Открытие, Азс Лукойл)","rur":true,"usd":false,"eur":false,"hours":"ежедневно: круглосуточно","address":"Ул. Магистральная, 2/А","lat":46.59284,"lon":47.86194,"hidden":false,"type":"open_office"},{"id":58884,"name":"Банк \"Открытие\"(Офис Оо \"Нижегородский\")","rur":true,"usd":false,"eur":false,"hours":"круглосуточно (Общедоступен)","address":"Ул. Максима Горького, Д.146, 603000, Г. Нижний Новгород, Ул. Максима Горького, Д. 146","lat":56.315126,"lon":43.998539,"hidden":true,"type":"open_atm"},{"id":62225,"name":"Банк \"Открытие\"(Банкомат Банк Открытие, Офис Лукойл)","rur":true,"usd":false,"eur":false,"hours":"ежедневно: 08:00-20:00","address":"Ул. Социалистическая, 17","lat":48.69879,"lon":44.49402,"hidden":false,"type":"open_office"},{"id":62226,"name":"Банк \"Открытие\"(Банкомат Банк Открытие, Азс Лукойл)","rur":true,"usd":false,"eur":false,"hours":"ежедневно: круглосуточно","address":"Проспект Им. Маршала Г.К. Жукова, 11","lat":48.72231,"lon":44.5024,"hidden":false,"type":"open_office"},{"id":56740,"name":"Банк \"Открытие\"(Зао \"Галерея-Нальчик\")","rur":true,"usd":false,"eur":false,"hours":"09:00 до 23:00","address":"Ул. Кирова, Д. 1, Литера \"Д\"","lat":43.476264,"lon":43.57325,"hidden":true,"type":"open_atm"},{"id":62227,"name":"Банк \"Открытие\"(Банкомат Банк Открытие, Азс Лукойл)","rur":true,"usd":false,"eur":false,"hours":"ежедневно: круглосуточно","address":"Ул. Им. Неждановой, 4","lat":48.70391,"lon":44.45302,"hidden":false,"type":"open_office"},{"id":62228,"name":"Банк \"Открытие\"(Банкомат Банк Открытие, Азс Лукойл)","rur":true,"usd":false,"eur":false,"hours":"ежедневно: круглосуточно","address":"Ул. Им. Маршала Еременко, 49/А","lat":48.78832,"lon":44.57239,"hidden":false,"type":"open_office"},{"id":62229,"name":"Банк \"Открытие\"(Банкомат Банк Открытие, Азс Лукойл)","rur":true,"usd":false,"eur":false,"hours":"ежедневно: круглосуточно","address":"Ул. 40 Лет Влксм, 94","lat":48.46261,"lon":44.64396,"hidden":false,"type":"open_office"},{"id":62230,"name":"Банк \"Открытие\"(Банкомат Банк Открытие, Азс Лукойл)","rur":true,"usd":false,"eur":false,"hours":"ежедневно: круглосуточно","address":"Ул. Им. Рокоссовского, Д. 129д","lat":48.7285,"lon":44.5205,"hidden":false,"type":"open_office"},{"id":62231,"name":"Банк \"Открытие\"(Банкомат Банк Открытие, Азс Лукойл)","rur":true,"usd":false,"eur":false,"hours":"ежедневно: круглосуточно","address":"Ул. Лазоревая, 170","lat":48.52382,"lon":44.49317,"hidden":false,"type":"open_office"},{"id":62232,"name":"Банк \"Открытие\"(Банкомат Банк Открытие, Азс Лукойл)","rur":true,"usd":false,"eur":false,"hours":"ежедневно: круглосуточно","address":"Ул. Им. Саши Чекалина, 88","lat":48.55694,"lon":44.44197,"hidden":false,"type":"open_office"},{"id":62233,"name":"Банк \"Открытие\"(Банкомат Банк Открытие, Азс Лукойл)","rur":true,"usd":false,"eur":false,"hours":"ежедневно: круглосуточно","address":"Проспект Жукова 94а","lat":48.73904,"lon":44.49233,"hidden":false,"type":"open_office"},{"id":62234,"name":"Банк \"Открытие\"(Банкомат Банк Открытие, Азс Лукойл)","rur":true,"usd":false,"eur":false,"hours":"ежедневно: круглосуточно","address":"Ул. Социалистическая, 43","lat":48.69453,"lon":44.48587,"hidden":false,"type":"open_office"},{"id":59524,"name":"Банк \"Открытие\"(Банкомат Банк «Петрокоммерц», Аэропорт Города Волгоград)","rur":true,"usd":false,"eur":false,"hours":"ежедневно: круглосуточно","address":"Аэропорт","lat":48.79721,"lon":44.35381,"hidden":true,"type":"open_office"},{"id":62235,"name":"Банк \"Открытие\"(Банкомат Банк Открытие, Азс Лукойл)","rur":true,"usd":false,"eur":false,"hours":"ежедневно: круглосуточно","address":"Ул. Ленина, 1б","lat":48.815,"lon":44.72732,"hidden":false,"type":"open_office"},{"id":55000,"name":"Отделение банка Открытие (Доп. офис «Центральный») (Банк «Открытие». Офис Банка)","rur":false,"usd":false,"eur":false,"hours":"Пн-Чт: 09.00 - 17.00 Пт: 9.00 - 16.00 Сб-Вс: выходной","address":"Москва, ул., Верхняя Радищевская, д.2/1, стр. 5","lat":55.745407,"lon":37.647846,"hidden":true,"type":"open_office"},{"id":62236,"name":"Банк \"Открытие\"(Банкомат Банк Открытие, Азс Лукойл)","rur":true,"usd":false,"eur":false,"hours":"ежедневно: круглосуточно","address":"Ул. Пушкина, 51","lat":48.80291,"lon":44.81272,"hidden":false,"type":"open_office"},{"id":62237,"name":"Банк \"Открытие\"(Банкомат Банк Открытие, Азс Лукойл)","rur":true,"usd":false,"eur":false,"hours":"ежедневно: круглосуточно","address":"Ул. Им. Генерала Карбышева, 59","lat":48.77202,"lon":44.78115,"hidden":false,"type":"open_office"},{"id":59606,"name":"Банк \"Открытие\"(Банкомат Банк «Петрокоммерц», Офис Камышинтеплоэнерго)","rur":true,"usd":false,"eur":false,"hours":"ежедневно: 08:00-16:00","address":"Ул. Ленина, Д.10/Б","lat":50.10635,"lon":45.41165,"hidden":false,"type":"open_office"},{"id":59610,"name":"Банк \"Открытие\"(Банкомат Банк «Петрокоммерц», С Лева При Входе Вавтостанция Ной)","rur":true,"usd":false,"eur":false,"hours":"ежедневно: 08:00-20:00","address":"Волгоградская Область, Камышинский Р-Н., Петров Вал, Ул., Ленина, Д.39","lat":50.15002,"lon":45.19972,"hidden":false,"type":"open_office"},{"id":62238,"name":"Банк \"Открытие\"(Банкомат Банк Открытие, Азс Лукойл)","rur":true,"usd":false,"eur":false,"hours":"ежедневно: круглосуточно","address":"Мкр. 5, Д., Около Дома 48а","lat":50.08982,"lon":45.35285,"hidden":false,"type":"open_office"},{"id":59624,"name":"Банк \"Открытие\"(Банкомат Банк «Петрокоммерц», Ооо Жирновск)","rur":true,"usd":false,"eur":false,"hours":"ежедневно: 08:00-18:00","address":"Ул. Ломоносова, Д. 54/А","lat":50.97528,"lon":44.77827,"hidden":false,"type":"open_office"},{"id":59661,"name":"Банк \"Открытие\"(Банкомат Банк Открытие, Офис Банка)","rur":true,"usd":false,"eur":false,"hours":"ежедневно: круглосуточно","address":"Воронеж Ул., Кирова Д. 11","lat":51.6565,"lon":39.19065,"hidden":false,"type":"open_office"},{"id":62240,"name":"Банк \"Открытие\"(Банкомат Банк Открытие, Азс Лукойл)","rur":true,"usd":false,"eur":false,"hours":"ежедневно: круглосуточно","address":"Проспект Мира, 166","lat":54.23584,"lon":20.43788,"hidden":false,"type":"open_office"},{"id":62241,"name":"Банк \"Открытие\"(Банкомат Банк Открытие, Офис Лукойл-Гарант)","rur":true,"usd":false,"eur":false,"hours":"пн.-пт.: 09:00-18:00, сб.-вс.: выходные","address":"Ул. Черняховского, 6","lat":54.71839,"lon":20.50357,"hidden":false,"type":"open_office"},{"id":62242,"name":"Банк \"Открытие\"(Банкомат Банк Открытие, Азс Лукойл)","rur":true,"usd":false,"eur":false,"hours":"ежедневно: круглосуточно","address":"Калининградская Область, Гурьевский Р-Н, Пос. Васильково,  Гурьевское Ш., Д. 1","lat":54.74726,"lon":20.58959,"hidden":false,"type":"open_office"},{"id":57348,"name":"Банк \"Открытие\"","rur":true,"usd":false,"eur":false,"hours":"Пн-Пт: 09.00-19.00, Сб: 09.00-17.00, Вс: выходной","address":"Ул. Ватутина, 14","lat":54.988236,"lon":82.886761,"hidden":false,"type":"open_office"},{"id":59682,"name":"Банк \"Открытие\"(Банкомат Банк Открытие, Магазин Слата)","rur":true,"usd":false,"eur":false,"hours":"пн.-пт.: 10:00-19:00, сб.-вс.: 10:00-18:00","address":"Ул. Байкальская, Д. 250в","lat":52.25418,"lon":104.33266,"hidden":false,"type":"open_office"},{"id":60506,"name":"Банк \"Открытие\"(Банкомат Банк Открытие, Офис Банка)","rur":true,"usd":false,"eur":false,"hours":"ежедневно: круглосуточно","address":"Ул. Ленина, Д. 18","lat":54.19842,"lon":37.60678,"hidden":false,"type":"open_office"},{"id":62243,"name":"Банк \"Открытие\"(Банкомат Банк Открытие, Азс Лукойл)","rur":true,"usd":false,"eur":false,"hours":"в режиме работы АЗС","address":"Ул. Ленина, 130","lat":58.58587,"lon":49.68309,"hidden":true,"type":"open_office"},{"id":62244,"name":"Банк \"Открытие\"(Банкомат Банк Открытие, Азс Лукойл)","rur":true,"usd":false,"eur":false,"hours":"ежедневно: круглосуточно","address":"Московская Область, Домодедово 35 Км Трассы Москва-Домодедово","lat":55.49661,"lon":37.84131,"hidden":false,"type":"open_office"},{"id":62247,"name":"Банк \"Открытие\"(Банкомат Банк Открытие, Азс Лукойл)","rur":true,"usd":false,"eur":false,"hours":"ежедневно: круглосуточно","address":"33 Км","lat":55.50966,"lon":37.83398,"hidden":false,"type":"open_office"},{"id":62248,"name":"Банк \"Открытие\"(Банкомат Банк Открытие, Азс Лукойл)","rur":true,"usd":false,"eur":false,"hours":"ежедневно: круглосуточно","address":"Ул. Егорьевская, Д.8 Пересечение Ул. Мадонская И Ул. Егорьевская","lat":55.79271,"lon":38.97066,"hidden":false,"type":"open_office"},{"id":62250,"name":"Банк \"Открытие\"(Банкомат Банк Открытие, Азс Лукойл)","rur":true,"usd":false,"eur":false,"hours":"ежедневно: круглосуточно","address":"Ул. Советская","lat":55.8071,"lon":37.9444,"hidden":false,"type":"open_office"},{"id":59783,"name":"Банк \"Открытие\"(Банкомат Банк Открытие, Торговый Центр Калининград-Плаза)","rur":true,"usd":false,"eur":false,"hours":"ежедневно: 09:00-21:00","address":"Ленинский Проспект, Д. 30","lat":54.71123,"lon":20.50822,"hidden":false,"type":"open_office"},{"id":62251,"name":"Банк \"Открытие\"(Банкомат Банк Открытие, Азс Лукойл)","rur":true,"usd":false,"eur":false,"hours":"ежедневно: круглосуточно","address":"Московская Область, Волоколамский Муниципальный Район, 115 Км М-9, Правая Сторона","lat":56.02187,"lon":35.96244,"hidden":false,"type":"open_office"},{"id":62252,"name":"Банк \"Открытие\"(Банкомат Банк Открытие, Азс Лукойл)","rur":true,"usd":false,"eur":false,"hours":"ежедневно: круглосуточно","address":"Д. Новотроицкое 81км А/Д","lat":55.27952,"lon":38.49921,"hidden":false,"type":"open_office"},{"id":62253,"name":"Банк \"Открытие\"(Банкомат Банк Открытие, Азс Лукойл)","rur":true,"usd":false,"eur":false,"hours":"ежедневно: круглосуточно","address":"Ленинградское 87 Км","lat":56.35608,"lon":36.69824,"hidden":false,"type":"open_office"},{"id":62254,"name":"Банк \"Открытие\"(Банкомат Банк Открытие, Азс Лукойл)","rur":true,"usd":false,"eur":false,"hours":"ежедневно: круглосуточно","address":"Московская Область, Клинский Район, Шоссе Ленинградское, 104 Км","lat":56.46377,"lon":36.58739,"hidden":true,"type":"open_office"},{"id":54841,"name":"Банкомат банка Открытие («ФК Открытие», Филиал Петрокоммерц . АЗС Лукойл)","rur":false,"usd":false,"eur":false,"hours":"ежедневно: круглосуточно","address":"Нижний Новгород, пр-кт, Гагарина, 31","lat":56.288404,"lon":43.980624,"hidden":true,"type":"open_atm"},{"id":54830,"name":"Банкомат банка Открытие («ФК Открытие». Нижегородский филиал)","rur":false,"usd":false,"eur":false,"hours":"ежедневно: круглосуточно","address":"Нижний Новгород, Студеная ул., д. 32","lat":56.314299,"lon":44.000416,"hidden":true,"type":"open_atm"},{"id":62255,"name":"Банк \"Открытие\"(Банкомат Банк Открытие, Азс Лукойл)","rur":true,"usd":false,"eur":false,"hours":"ежедневно: круглосуточно","address":"Московская Область, Красногорский Район, 25 Км А/Д \"Балтия\", Вл. 1, Строен. 2","lat":55.78819,"lon":37.25701,"hidden":false,"type":"open_office"},{"id":62257,"name":"Банк \"Открытие\"(Банкомат Банк Открытие, Азс Лукойл)","rur":true,"usd":false,"eur":false,"hours":"ежедневно: круглосуточно","address":"Шоссе Минское, 25 Км","lat":55.65587,"lon":37.28707,"hidden":false,"type":"open_office"},{"id":62258,"name":"Банк \"Открытие\"(Банкомат Банк Открытие, Азс Лукойл)","rur":true,"usd":false,"eur":false,"hours":"ежедневно: круглосуточно","address":"Московская Область, Одинцовский Район, Шоссе Минское, 39 Км","lat":55.61248,"lon":37.08083,"hidden":false,"type":"open_office"},{"id":62259,"name":"Банк \"Открытие\"(Банкомат Банк Открытие, Азс Лукойл)","rur":true,"usd":false,"eur":false,"hours":"ежедневно: круглосуточно","address":"Можайское Шоссе, 79-А","lat":55.57383,"lon":36.71717,"hidden":false,"type":"open_office"},{"id":62260,"name":"Банк \"Открытие\"(Банкомат Банк Открытие, Азс Лукойл)","rur":true,"usd":false,"eur":false,"hours":"ежедневно: круглосуточно","address":"Московская Область, Д. Маньково","lat":56.37391,"lon":38.11595,"hidden":false,"type":"open_office"},{"id":62262,"name":"Банк \"Открытие\"(Банкомат Банк Открытие, Азс Лукойл)","rur":true,"usd":false,"eur":false,"hours":"в режиме работы АЗС","address":"Ул. Кима, 339","lat":56.38322,"lon":43.79273,"hidden":false,"type":"open_office"},{"id":61850,"name":"Банк \"Открытие\"(Банкомат Банк Открытие, Офис Банка)","rur":true,"usd":false,"eur":false,"hours":"ежедневно: круглосуточно","address":"Адмиральская Ул., Д. 1","lat":54.71515,"lon":20.46446,"hidden":false,"type":"open_office"},{"id":62264,"name":"Банк \"Открытие\"(Банкомат Банк Открытие, Азс Лукойл)","rur":true,"usd":false,"eur":false,"hours":"в режиме работы АЗС","address":"Ул. Родионова, 163","lat":56.31653,"lon":44.06951,"hidden":false,"type":"open_office"},{"id":62265,"name":"Банк \"Открытие\"(Банкомат Банк Открытие, Азс Лукойл)","rur":true,"usd":false,"eur":false,"hours":"в режиме работы АЗС","address":"Проспект Гагарина, 23","lat":56.29654,"lon":43.98308,"hidden":false,"type":"open_office"},{"id":62266,"name":"Банк \"Открытие\"(Банкомат Банк Открытие, Азс Лукойл)","rur":true,"usd":false,"eur":false,"hours":"в режиме работы АЗС","address":"Проспект Гагарина, 232/А","lat":56.22259,"lon":43.94111,"hidden":false,"type":"open_office"},{"id":62267,"name":"Банк \"Открытие\"(Банкомат Банк Открытие, Азс Лукойл)","rur":true,"usd":false,"eur":false,"hours":"в режиме работы АЗС","address":"Гавриловское Ш., Д. 1","lat":56.24275,"lon":43.72196,"hidden":false,"type":"open_office"},{"id":61853,"name":"Банк \"Открытие\"(Банкомат Банк Открытие, Азс Лукойл)","rur":true,"usd":false,"eur":false,"hours":"ежедневно: круглосуточно","address":"Ул. Лепсе, 30","lat":58.61424,"lon":49.6274,"hidden":true,"type":"open_office"},{"id":59724,"name":"Банк \"Открытие\"(Банкомат Ханты-Мансийский Банк, Торговый Центр Парус)","rur":true,"usd":false,"eur":false,"hours":"ежедневно: 08:00-22:00","address":"Ул. Рихарда Зорге, 41","lat":55.43955,"lon":65.31653,"hidden":false,"type":"open_office"},{"id":62272,"name":"Банк \"Открытие\"(Банкомат Банк Открытие, Азс Лукойл)","rur":true,"usd":false,"eur":false,"hours":"ежедневно: круглосуточно","address":"Ул. Пожарная, 20","lat":57.99945,"lon":56.11664,"hidden":false,"type":"open_office"},{"id":62273,"name":"Банк \"Открытие\"(Банкомат Банк Открытие, Азс Лукойл)","rur":true,"usd":false,"eur":false,"hours":"ежедневно: круглосуточно","address":"Ул. Соликамская, 303","lat":58.09917,"lon":56.35716,"hidden":false,"type":"open_office"},{"id":59729,"name":"Банк \"Открытие\"(Банкомат Ханты-Мансийский Банк, Супермаркет Метрополис)","rur":true,"usd":false,"eur":false,"hours":"ежедневно: 08:00-22:00","address":"Курган Ул., Советская, 39/1","lat":55.43209,"lon":65.3392,"hidden":false,"type":"open_office"},{"id":62276,"name":"Банк \"Открытие\"(Банкомат Банк Открытие, Азс Лукойл)","rur":true,"usd":false,"eur":false,"hours":"ежедневно: круглосуточно","address":"Ул. Гагарина, 150","lat":58.07703,"lon":55.64923,"hidden":false,"type":"open_office"},{"id":59725,"name":"Банк \"Открытие\"(Банкомат Ханты-Мансийский Банк, Офис Банка)","rur":true,"usd":false,"eur":false,"hours":"пн.-пт.: 09:00-18:00 , сб.-вс.: выходные","address":"Ул. Гагарина, 10","lat":56.08453,"lon":63.61908,"hidden":false,"type":"open_office"},{"id":62279,"name":"Банк \"Открытие\"(Банкомат Банк Открытие, Азс Лукойл)","rur":true,"usd":false,"eur":false,"hours":"ежедневно: круглосуточно","address":"Трасса Ростов/Дон-Таганрог-Мариуполь, Азс № 616","lat":47.28419,"lon":39.42547,"hidden":false,"type":"open_office"},{"id":62280,"name":"Банк \"Открытие\"(Банкомат Банк Открытие, Азс Лукойл)","rur":true,"usd":false,"eur":false,"hours":"ежедневно: круглосуточно","address":"Автодорога М-4 Дон-2, 937 Км (Справа)","lat":48.25148,"lon":40.29167,"hidden":false,"type":"open_office"},{"id":62281,"name":"Банк \"Открытие\"(Банкомат Банк Открытие, Азс Лукойл)","rur":true,"usd":false,"eur":false,"hours":"ежедневно: круглосуточно","address":"Ул. Текучева, 151/А","lat":47.23772,"lon":39.7194,"hidden":false,"type":"open_office"},{"id":62282,"name":"Банк \"Открытие\"(Банкомат Банк Открытие, Азс Лукойл)","rur":true,"usd":false,"eur":false,"hours":"ежедневно: круглосуточно","address":"Ростовская Область, Октябрьский Район, 1015 Км+50 Ма/Д М-4 \"Дон\"(Слева)","lat":48.16557,"lon":40.26182,"hidden":false,"type":"open_office"},{"id":62283,"name":"Банк \"Открытие\"(Банкомат Банк Открытие, Азс Лукойл)","rur":true,"usd":false,"eur":false,"hours":"ежедневно: круглосуточно","address":"Ул. Малиновского, Около 1км От Поста Гаи По Направлению На Юг По Ул. Малиновского","lat":47.23675,"lon":39.61275,"hidden":false,"type":"open_office"},{"id":62284,"name":"Банк \"Открытие\"(Банкомат Банк Открытие, Азс Лукойл)","rur":true,"usd":false,"eur":false,"hours":"ежедневно: круглосуточно","address":"Ул. Строительная, 8","lat":47.23741,"lon":38.89438,"hidden":false,"type":"open_office"},{"id":62287,"name":"Банк \"Открытие\"(Банкомат Банк Открытие, Азс Лукойл)","rur":true,"usd":false,"eur":false,"hours":"ежедневно: 08:00-20:00","address":"Самарская Область, С. Николаевка, Трасса Самара-Оренбург 29 Км","lat":53.06622,"lon":50.36816,"hidden":false,"type":"open_office"},{"id":59752,"name":"Банк \"Открытие\"(Банкомат Банк Открытие, Торговый Центр Норд)","rur":true,"usd":false,"eur":false,"hours":"ежедневно: 08:00-23:00","address":"Ул. Октябрьская, Д. 9","lat":59.3765,"lon":28.60762,"hidden":false,"type":"open_office"},{"id":62288,"name":"Банк \"Открытие\"(Банкомат Банк Открытие, Азс Лукойл)","rur":true,"usd":false,"eur":false,"hours":"ежедневно: 08:00-20:00","address":"Ул. Куйбышева, 5","lat":53.49136,"lon":49.52245,"hidden":false,"type":"open_office"},{"id":62289,"name":"Банк \"Открытие\"(Банкомат Банк Открытие, Азс Лукойл)","rur":true,"usd":false,"eur":false,"hours":"ежедневно: круглосуточно","address":"Шоссе Московское, 108/2","lat":51.61453,"lon":45.88395,"hidden":false,"type":"open_office"},{"id":62290,"name":"Банк \"Открытие\"(Банкомат Банк Открытие, Азс Лукойл)","rur":true,"usd":false,"eur":false,"hours":"ежедневно: круглосуточно","address":"Проспект Им 50 Лет Октября, 146","lat":51.59168,"lon":45.94847,"hidden":false,"type":"open_office"},{"id":62291,"name":"Банк \"Открытие\"(Банкомат Банк Открытие, Азс Лукойл)","rur":true,"usd":false,"eur":false,"hours":"ежедневно: круглосуточно","address":"Ул. Танкистов, 57","lat":51.55721,"lon":46.01906,"hidden":false,"type":"open_office"},{"id":62294,"name":"Банк \"Открытие\"(Банкомат Банк Открытие, Азс Лукойл)","rur":true,"usd":false,"eur":false,"hours":"ежедневно: круглосуточно","address":"Ул. Марины Расковой, 59","lat":51.47631,"lon":46.15743,"hidden":false,"type":"open_office"},{"id":62293,"name":"Банк \"Открытие\"(Банкомат Банк Открытие, Офис Банка)","rur":true,"usd":false,"eur":false,"hours":"по режиму работы офиса","address":"Ф. Энгельса Проспект, Д. 2","lat":51.48208,"lon":46.12891,"hidden":true,"type":"open_office"},{"id":62295,"name":"Банк \"Открытие\"(Банкомат Банк Открытие, Азс Лукойл)","rur":true,"usd":false,"eur":false,"hours":"ежедневно: круглосуточно","address":"Саратовская Область, Шумейка Сел.","lat":51.55061,"lon":46.27835,"hidden":false,"type":"open_office"},{"id":62297,"name":"Банк \"Открытие\"(Банкомат Банк Открытие, Азс Лукойл)","rur":true,"usd":false,"eur":false,"hours":"ежедневно: круглосуточно","address":"Московская Область, Раздоры Дер., Одинцовский Район, Шоссе Рублево-Успенское, 1 Км","lat":55.76495,"lon":37.36508,"hidden":false,"type":"open_office"},{"id":62298,"name":"Банк \"Открытие\"(Банкомат Банк Открытие, Азс Лукойл)","rur":true,"usd":false,"eur":false,"hours":"ежедневно: 08:00-20:00","address":"Ул. 30 Лет Победы, 34","lat":57.12656,"lon":65.56523,"hidden":false,"type":"open_office"},{"id":61856,"name":"Банк \"Открытие\"(Банкомат Банк Открытие, Администрация Города Электросталь)","rur":true,"usd":false,"eur":false,"hours":"ежедневно: 09:00-18:00","address":"Ул. Мира, 5","lat":55.78057,"lon":38.44494,"hidden":false,"type":"open_office"},{"id":62300,"name":"Банк \"Открытие\"(Банкомат Банк Открытие, Азс Лукойл)","rur":true,"usd":false,"eur":false,"hours":"ежедневно: круглосуточно","address":"Шоссе Киевское, 32 Км, Левая Строна","lat":55.58348,"lon":37.25859,"hidden":false,"type":"open_office"},{"id":61858,"name":"Банк \"Открытие\"(Банкомат Банк Открытие, Супермаркет Атак)","rur":true,"usd":false,"eur":false,"hours":"ежедневно: 10:00-22:00","address":"Ул. Тевосяна, Д. 19","lat":55.77753,"lon":38.43377,"hidden":false,"type":"open_office"},{"id":62301,"name":"Банк \"Открытие\"(Банкомат Банк Открытие, Азс Лукойл)","rur":true,"usd":false,"eur":false,"hours":"ежедневно: круглосуточно","address":"Мкад, 28-Й Километр, Вл.2, Стр.2","lat":55.57304,"lon":37.67445,"hidden":false,"type":"open_office"},{"id":62302,"name":"Банк \"Открытие\"(Банкомат Банк Открытие, Азс Лукойл)","rur":true,"usd":false,"eur":false,"hours":"ежедневно: круглосуточно","address":"Ул. Свободы, 99,Банкомат Находится Справа При Входе В Минимаркет Наазс Лукойл","lat":55.87158,"lon":37.43915,"hidden":false,"type":"open_office"},{"id":62303,"name":"Банк \"Открытие\"(Банкомат Банк Открытие, Азс Лукойл)","rur":true,"usd":false,"eur":false,"hours":"ежедневно: круглосуточно","address":"Ул. 3-Я Хорошевская, 9, 1, 1,Банкомат Находится При Входе В Минимаркет Наазс Лукойл","lat":55.7798,"lon":37.49846,"hidden":false,"type":"open_office"},{"id":62304,"name":"Банк \"Открытие\"(Банкомат Банк Открытие, Офис Банка)","rur":true,"usd":false,"eur":false,"hours":"пн.-пт.: 09:30-19:00, сб., вс.: выходные","address":"Олимпийский Проспект, Д. 5, Стр. 1","lat":55.78457,"lon":37.62188,"hidden":false,"type":"open_office"},{"id":62305,"name":"Банк \"Открытие\"(Банкомат Банк Открытие, Азс Лукойл)","rur":true,"usd":false,"eur":false,"hours":"ежедневно: круглосуточно","address":"Шоссе Варшавское, 142,Банкомат Находится Справа При Входе В Минимаркет Наазс \"Лукойл\"","lat":55.60583,"lon":37.60654,"hidden":false,"type":"open_office"},{"id":59836,"name":"Банк \"Открытие\"(Банкомат Банк «Петрокоммерц», Азс Лукойл)","rur":true,"usd":false,"eur":false,"hours":"ежедневно: круглосуточно","address":"Шоссе Ленинградское","lat":56.46481,"lon":36.58928,"hidden":true,"type":"open_office"},{"id":62306,"name":"Банк \"Открытие\"(Банкомат Банк Открытие, Азс Лукойл)","rur":true,"usd":false,"eur":false,"hours":"ежедневно: круглосуточно","address":"Шоссе Волоколамское, 22,Банкомат Находится Справа При Входе В Минимаркет Наазс Лукойл","lat":55.81124,"lon":37.487,"hidden":false,"type":"open_office"},{"id":62307,"name":"Банк \"Открытие\"(Банкомат Банк Открытие, Азс Лукойл)","rur":true,"usd":false,"eur":false,"hours":"ежедневно: круглосуточно","address":"Мкад, 78 Км","lat":55.88955,"lon":37.48833,"hidden":false,"type":"open_office"},{"id":59862,"name":"Банк \"Открытие\"(Банкомат Банк «Петрокоммерц», Азс Лукойл)","rur":true,"usd":false,"eur":false,"hours":"ежедневно: круглосуточно","address":"Московская Область, Хрипань, Шоссе Егорьевское, 16 Км","lat":55.63959,"lon":38.17523,"hidden":true,"type":"open_office"},{"id":60828,"name":"Банк \"Открытие\"(Банкомат Банк Открытие, Гостиница Петр Первый)","rur":true,"usd":false,"eur":false,"hours":"ежедневно: круглосуточно","address":"Ул. Неглинная, Д. 17,Банкомат Находится Внутри Внутри Гостиницы \"Петр Первый\", Слева От Ресепшна","lat":55.76348,"lon":37.61968,"hidden":false,"type":"open_office"},{"id":62310,"name":"Банк \"Открытие\"(Банкомат Банк Открытие, Азс Лукойл)","rur":true,"usd":false,"eur":false,"hours":"ежедневно: круглосуточно","address":"Проспект Энгельса, 164","lat":60.06645,"lon":30.34399,"hidden":false,"type":"open_office"},{"id":62311,"name":"Банк \"Открытие\"(Банкомат Банк Открытие, Азс Лукойл)","rur":true,"usd":false,"eur":false,"hours":"ежедневно: круглосуточно","address":"Проспект Народного Ополчения, 80","lat":59.82504,"lon":30.14911,"hidden":false,"type":"open_office"},{"id":61861,"name":"Банк \"Открытие\"(Банкомат Банк Открытие, Торговый Центр Счастливая 7я)","rur":true,"usd":false,"eur":false,"hours":"ежедневно: круглосуточно","address":"Вознесенская Ул., Д. 32а","lat":56.30411,"lon":38.13344,"hidden":false,"type":"open_office"},{"id":61784,"name":"Банк \"Открытие\"(Банкомат Ханты-Мансийский Банк, Офис Банка)","rur":true,"usd":false,"eur":false,"hours":"пн.-пт.: 09:00-18:00,сб.-вс.: выходные","address":"Ханты-Мансийский Автономный Округ – Югра, П.Г.Т. Высокий, Ленина, 1/2","lat":61.14274,"lon":76.00338,"hidden":false,"type":"open_office"},{"id":62312,"name":"Банк \"Открытие\"(Банкомат Банк Открытие, Азс Лукойл)","rur":true,"usd":false,"eur":false,"hours":"ежедневно: круглосуточно","address":"Ул. Кржижановского, 19","lat":59.92967,"lon":30.48517,"hidden":false,"type":"open_office"},{"id":59879,"name":"Банк \"Открытие\"(Банкомат Банк Открытие, Офис Банка)","rur":true,"usd":false,"eur":false,"hours":"ежедневно: круглосуточно","address":"Ул. Калинина, Д. 17","lat":54.89076,"lon":38.06849,"hidden":false,"type":"open_office"},{"id":62313,"name":"Банк \"Открытие\"(Банкомат Банк Открытие, Азс Лукойл)","rur":true,"usd":false,"eur":false,"hours":"ежедневно: круглосуточно","address":"Шоссе Московское, 13, 4/А","lat":59.82434,"lon":30.3552,"hidden":false,"type":"open_office"},{"id":54367,"name":"Банкомат банка Открытие («ФК Открытие», Филиал Петрокоммерц . Магазин Виктория)","rur":false,"usd":false,"eur":false,"hours":"ежедневно: круглосуточно","address":"Москва, б-р, Ореховый, 14, 3","lat":55.609675,"lon":37.720106,"hidden":true,"type":"open_atm"},{"id":57955,"name":"Банк \"Траст\"","rur":true,"usd":false,"eur":false,"hours":"пн. - пт. с 10.00 до 21.00 суб. с 10.00 до 18.00 воск. выходной","address":"Проспект Мира, Д. 6","lat":55.773322,"lon":37.632987,"hidden":false,"type":"open_office"},{"id":55024,"name":"Банкомат банка Открытие («ФК Открытие». Торговый Центр РИО)","rur":false,"usd":false,"eur":false,"hours":"ежедневно: 10:00-23:00","address":"Москва, Большая Черемушкинская ул., д. 1","lat":55.68942,"lon":37.60213,"hidden":true,"type":"open_atm"},{"id":59100,"name":"Банк \"Открытие\"","rur":true,"usd":false,"eur":false,"hours":"Пн-Пт: 09.00-19.00, Сб-Вс: выходной","address":"Ул. Советская, Д. 1","lat":54.815057,"lon":58.439443,"hidden":false,"type":"open_office"},{"id":58281,"name":"Банк \"Открытие\"","rur":true,"usd":false,"eur":false,"hours":"Пн-Пт: 09.00-20.00, Сб-Вс: выходной","address":"Ломоносов, Ул. Александровская, Дом 27, Литер А, Пом. 4н","lat":59.909197,"lon":29.777139,"hidden":false,"type":"open_office"},{"id":58278,"name":"Банк \"Открытие\"","rur":true,"usd":false,"eur":false,"hours":"Пн-Пт: 09.00-18.00, Сб: 10.00-16.00, Вс: выходной","address":"Г.Колпино, Проспект Ленина, Дом 16/11, Литер А, Помещение 1-Н","lat":59.749633,"lon":30.59537,"hidden":false,"type":"open_office"},{"id":58156,"name":"Банк \"Открытие\"","rur":true,"usd":false,"eur":false,"hours":"Пн-Пт: 10.00-19.00, Сб-Вс: выходной","address":"Новочеркасский Пр., 43/17, Литер \"А\", Помещение 16н","lat":59.928036,"lon":30.41215,"hidden":false,"type":"open_office"},{"id":58274,"name":"Банк \"Открытие\"","rur":true,"usd":false,"eur":false,"hours":"Пн-Пт: 10.00-19.00, Сб-Вс: выходной","address":"Поселок Металлострой, Улица Пионерская, Дом 2, Помещение 1н, Литер А","lat":59.810111,"lon":30.572777,"hidden":false,"type":"open_office"},{"id":58287,"name":"Банк \"Открытие\"","rur":true,"usd":false,"eur":false,"hours":"Пн-Пт: 09.00-18.00, Сб-Вс: выходной","address":"Г.Сестрорецк, Улица Воскова, Дом 5, Литер А, Помещение 1н","lat":60.092936,"lon":29.962138,"hidden":false,"type":"open_office"},{"id":61862,"name":"Банк \"Открытие\"(Банкомат Банк Открытие, Центр Международной Торговли 1)","rur":true,"usd":false,"eur":false,"hours":"пн.-чт.: 09:00-18:00, пт.: 09:00-17:00","address":"Ковалихинская Ул., Д. 8","lat":56.32337,"lon":44.01202,"hidden":false,"type":"open_office"},{"id":62329,"name":"Банк \"Открытие\"(Банкомат Банк Открытие, Азс Лукойл)","rur":true,"usd":false,"eur":false,"hours":"ежедневно: 07:00-19:00","address":"П. Искателей, Ул., Юбилейная","lat":67.66575,"lon":53.12716,"hidden":false,"type":"open_office"},{"id":60894,"name":"Банк \"Открытие\"(Банкомат Банк «Петрокоммерц», Азс Лукойл)","rur":true,"usd":false,"eur":false,"hours":"ежедневно: круглосуточно","address":"Проезд Херсонский, 4","lat":59.92883,"lon":30.38602,"hidden":true,"type":"open_office"},{"id":58138,"name":"Банк \"Открытие\"","rur":true,"usd":false,"eur":false,"hours":"Пн-Пт: 09.00-20.00, Сб: 10.00-16.00, Вс: выходной","address":"Проспект Маршала Жукова, Дом 36, Корпус 1, Литер А, Помещение 17н","lat":59.853026,"lon":30.224447,"hidden":false,"type":"open_office"},{"id":60851,"name":"Банк \"Открытие\"(Банкомат Фк Открытие, Торговый Центр Москва)","rur":true,"usd":false,"eur":false,"hours":"ежедневно: 10:00-21:00","address":"Каширское Ш, Д. 61, Стр. 3а,Банкомат Находится На 0 Этаже, Линия Ц Торгового Центра Москва. Вход Со Стороны Каширского Шоссе","lat":55.61727,"lon":37.71569,"hidden":false,"type":"open_office"},{"id":56853,"name":"Банк \"Открытие\"(Банкомат Нб «Траст», Торговый Центр Центральный, Внутри Помещения У Первого Входа Справа Со Стороны Ул. Сипягина )","rur":true,"usd":false,"eur":false,"hours":"ежедневно: 08:00-19:00","address":"Ул. Бирюзова, Д. 3","lat":44.72234,"lon":37.76636,"hidden":true,"type":"open_office"},{"id":57726,"name":"Банк \"Открытие\"","rur":true,"usd":false,"eur":false,"hours":"Пн-Пт: 09.00-20.00, Сб-Вс: выходной","address":"Улица Малышева, Дом 128","lat":56.839489,"lon":60.647717,"hidden":false,"type":"open_office"},{"id":56842,"name":"Банк \"Открытие\"","rur":true,"usd":false,"eur":false,"hours":"Пн-Чт: 09.00-18.00, Пт: 09.00-17.00, Сб-Вс: выходной","address":"Западный Округ, Ул.Им.Дзержинского, Дом №7 / Ул.Морская, Дом №1","lat":45.056518,"lon":38.978718,"hidden":true,"type":"open_office"},{"id":58781,"name":"Банк \"Открытие\"","rur":false,"usd":false,"eur":false,"hours":"","address":"Ул.Тимура Фрунзе, Д.11","lat":55.735388,"lon":37.586904,"hidden":true,"type":"open_office"},{"id":59993,"name":"Банк \"Открытие\"(Банкомат Банк Открытие, Офис Банка)","rur":true,"usd":false,"eur":false,"hours":"ежедневно: 09:00-19:00","address":"Ул. Державина Д. 14","lat":55.03818,"lon":82.91973,"hidden":false,"type":"open_office"},{"id":57960,"name":"Банк \"Траст\"","rur":true,"usd":false,"eur":false,"hours":"пн. - пт. с 10.00 до 21.00 суб. с 10.00 до 18.00 воск. выходной","address":"Ул. Автозаводская, Д. 4","lat":55.710002,"lon":37.662722,"hidden":false,"type":"open_office"},{"id":60008,"name":"Банк \"Открытие\"(Банкомат Банк Открытие, Торговый Центр Академгородок)","rur":true,"usd":false,"eur":false,"hours":"ежедневно: круглосуточно","address":"Ул. Ильича, Д. 6,Банкомат Находится В Тамбуре Главного Входа В Супермаркет Со Стороны Гостиницы Золотая Долина","lat":54.83906,"lon":83.09567,"hidden":false,"type":"open_office"},{"id":57965,"name":"Банк \"Траст\"","rur":true,"usd":false,"eur":false,"hours":"пн. - пт. с 10.00 до 21.00 суб. с 10.00 до 18.00 воск. выходной","address":"Ул. Мясницкая, Д. 30/1/2, Стр. 1","lat":55.765468,"lon":37.638719,"hidden":false,"type":"open_office"},{"id":58961,"name":"Банк \"Открытие\"(Ос - 901)","rur":false,"usd":false,"eur":false,"hours":"","address":"Ш. Санкт - Петербургское, Д. 66/2","lat":59.851159,"lon":30.054045,"hidden":true,"type":"open_office"},{"id":60014,"name":"Банк \"Открытие\"(Банкомат Банк Открытие, Правительство Новосибирской Области)","rur":true,"usd":false,"eur":false,"hours":"пн.-пт.: 08:00-18:00, сб.-вс.: выходные","address":"Ул. Красный Проспект, 18,Банкомат Находится В Банкоматной Зоне Холла Первого Этажа Здания Правительства Новосибирской Области, Справа От Гардероба","lat":55.02175,"lon":82.92344,"hidden":false,"type":"open_office"},{"id":57985,"name":"Банк \"Открытие\"","rur":true,"usd":false,"eur":false,"hours":"Пн-Пт: 09.00-21.00, Сб-Вс: выходной","address":"Ул. Летниковская, Д. 2, Стр. 4","lat":55.728003,"lon":37.643318,"hidden":false,"type":"open_office"},{"id":57987,"name":"Банк \"Открытие\"","rur":true,"usd":false,"eur":false,"hours":"Пн-Пт: 08.00-23.00, Сб-Вс: 08.00-23.00","address":"Пл. Смоленская – Сенная, Д.27,  Строен.1","lat":55.744708,"lon":37.582673,"hidden":false,"type":"open_office"},{"id":57983,"name":"Банк \"Открытие\"","rur":true,"usd":false,"eur":false,"hours":"Пн-Пт: 10.00-19.00, Сб-Вс: выходной","address":"Ул.Большая Никитская, Д.12, Строен.1","lat":55.756477,"lon":37.607089,"hidden":false,"type":"open_office"},{"id":57986,"name":"Банк \"Открытие\"","rur":true,"usd":false,"eur":false,"hours":"Пн-Пт: 10.00-19.00, Сб-Вс: выходной","address":"Ул. Куусинена, Д.4, Корп.1","lat":55.77918,"lon":37.517159,"hidden":false,"type":"open_office"},{"id":57988,"name":"Банк \"Открытие\"","rur":true,"usd":false,"eur":false,"hours":"Пн-Пт: 09.30-21.00, Сб: 10.00-18.00, Вс: выходной","address":"Ленинградский Проспект, Д.75, Корп. 1","lat":55.804243,"lon":37.513476,"hidden":false,"type":"open_office"},{"id":57984,"name":"Банк \"Открытие\"","rur":true,"usd":false,"eur":false,"hours":"Пн-Пт: 10.00-19.00, Сб-Вс: выходной","address":"Ул. Академика Королева, Д. 3","lat":55.820855,"lon":37.632772,"hidden":false,"type":"open_office"},{"id":57531,"name":"Банк \"Открытие\"(Банкомат  Нб «Траст», Кинотеатр Октябрь)","rur":true,"usd":false,"eur":false,"hours":"ежедневно: 08:00-24:00","address":"Ул. Комсомольская, 13","lat":52.96156,"lon":36.06765,"hidden":true,"type":"open_office"},{"id":60246,"name":"Банк \"Открытие\"(Банкомат Банк «Петрокоммерц», Офис Банка)","rur":true,"usd":false,"eur":false,"hours":"пн.-пт.: 09:00-18:30, сб.: 10:00-15:30, вс.: выходной, без перерыва","address":"Ул. Юбилейная, 5","lat":56.51817,"lon":56.07573,"hidden":true,"type":"open_office"},{"id":57974,"name":"Банк \"Открытие\"","rur":true,"usd":false,"eur":false,"hours":"Пн-Пт: 09.30-21.00, Сб: 10.00-18.00, Вс: выходной","address":"Ул. Профсоюзная, Д. 128, Корп. 1","lat":55.630985,"lon":37.515632,"hidden":false,"type":"open_office"},{"id":57977,"name":"Банк \"Открытие\"","rur":true,"usd":false,"eur":false,"hours":"Пн-Пт: 09.30-20.00, Сб-Вс: выходной","address":"Ул. Братиславская, Д. 26","lat":55.65431,"lon":37.763728,"hidden":false,"type":"open_office"},{"id":57962,"name":"Банк \"Траст\"","rur":true,"usd":false,"eur":false,"hours":"пн. - пт. с 10.00 до 21.00 суб. с 10.00 до 18.00 воск. выходной","address":"Просп. Вернадского, Д. 33","lat":55.680742,"lon":37.514563,"hidden":false,"type":"open_office"},{"id":60089,"name":"Банк \"Открытие\"(Банкомат Банк Открытие, Офис Банка)","rur":true,"usd":false,"eur":false,"hours":"пн.-пт.: 09:00-19:00, сб.: 09:00-17:00","address":"Красный Проспект, 83","lat":55.05218,"lon":82.91356,"hidden":false,"type":"open_office"},{"id":56724,"name":"Банк \"Траст\"","rur":true,"usd":false,"eur":false,"hours":"пн. - пт. с 09.30 до 17.30 суб.,воск. - выходной","address":"Ул.Пролетарская, Д. 449","lat":44.611708,"lon":40.076441,"hidden":false,"type":"open_office"},{"id":54297,"name":"Открытие","rur":false,"usd":false,"eur":false,"hours":"Пн-пт: 9:00-20:00\r\nсб-вс: выходной","address":"ул. Сущевская, д. 27, стр.1","lat":55.783649,"lon":37.6012302,"hidden":true,"type":"open_office"},{"id":56729,"name":"Банк \"Открытие\"","rur":true,"usd":false,"eur":false,"hours":"Пн-Чт: 09.00-18.00, Пт: 09.00-17.00, Сб-Вс: выходной","address":"Советский Р-Н, Ул.Айская, Д.67","lat":54.729793,"lon":55.977295,"hidden":false,"type":"open_office"},{"id":58813,"name":"Банк \"Открытие\"","rur":true,"usd":false,"eur":false,"hours":"Пн-Пт: 09.00-19.00, Сб: 10.00-16.00, Вс: выходной","address":"Кировский Р-Н, Ул. Цюрупы, Д. 16","lat":54.719966,"lon":55.950912,"hidden":false,"type":"open_office"},{"id":56728,"name":"Банк \"Траст\"","rur":true,"usd":false,"eur":false,"hours":"пн. - пт. с 09.00 до 20.00 суб. с 10.00 до 17.00 воск. - выходной","address":"Кировский Район, Ул. Софьи Перовской, Д. 11","lat":54.69928,"lon":55.985865,"hidden":false,"type":"open_office"},{"id":60512,"name":"Банк \"Открытие\"(Банкомат Банк Открытие, Офис Банка)","rur":true,"usd":false,"eur":false,"hours":"по режиму работы офиса","address":"Ул. Садовского/Октябрьская, Д. 25/30","lat":54.01665,"lon":38.29177,"hidden":true,"type":"open_office"},{"id":57705,"name":"Банк \"Траст\"(Офис Банка)","rur":true,"usd":false,"eur":false,"hours":"пн.-пт.: 09:00-18:00, сб.-вс.: выходной","address":"Ул. Маяковского, Д. 48","lat":51.49122,"lon":46.12262,"hidden":true,"type":"open_office"},{"id":56734,"name":"Банк \"Траст\"","rur":true,"usd":false,"eur":false,"hours":"пн. - пт. с 10.00 до 19.00 суб., воск. - выходной","address":"Ул. Островского, Д. 13/32","lat":53.351639,"lon":55.935254,"hidden":false,"type":"open_office"},{"id":56736,"name":"Банк \"Открытие\"","rur":true,"usd":false,"eur":false,"hours":"Пн-Пт: 09.30-17.30, Сб-Вс: выходной","address":"Пр. Ленина, 59а","lat":43.487208,"lon":43.610261,"hidden":false,"type":"open_office"},{"id":56737,"name":"Банк \"Открытие\"","rur":true,"usd":false,"eur":false,"hours":"Пн-Пт: 09.30-17.30, Сб-Вс: выходной","address":"Улица Ахохова, Дом 167","lat":43.494494,"lon":43.604484,"hidden":false,"type":"open_office"},{"id":56751,"name":"Банк \"Открытие\"","rur":true,"usd":false,"eur":false,"hours":"Пн-Пт: 09.30-17.30, Сб-Вс: выходной","address":"Ул. Энгельса, 55/1","lat":43.626577,"lon":44.056615,"hidden":false,"type":"open_office"},{"id":54298,"name":"Офис «На Сущевской»","rur":false,"usd":false,"eur":false,"hours":"ежедневно: круглосуточно","address":"ул. Сущевская, д. 27, стр.1","lat":55.7833685,"lon":37.6012709,"hidden":true,"type":"open_atm"},{"id":60940,"name":"Банк \"Открытие\"(Банкомат Банк Открытие, Офис Банка)","rur":true,"usd":false,"eur":false,"hours":"пн.-пт.: 10:00-19:00, сб.-вс.: выходной","address":"Гражданский Проспект, Д.41, Лит. А","lat":60.0115,"lon":30.39778,"hidden":true,"type":"open_office"},{"id":60070,"name":"Банк \"Открытие\"(Банкомат Банк Открытие, Офис Банка)","rur":true,"usd":false,"eur":false,"hours":"пн.-пт.:09:00-19:00, сб.: 09:00-17:00, вс.: выходной","address":"Ул. Титова, 29,Банкомат Находится В Тамбуре Дополнительного Офиса","lat":54.98157,"lon":82.86994,"hidden":false,"type":"open_office"},{"id":56764,"name":"Банк \"Траст\"","rur":true,"usd":false,"eur":false,"hours":"пн. - пт. с 10.00 до 18.00 суб.,воск. - выходной","address":"Ул. Карла Маркса, Д. 191","lat":61.675201,"lon":50.82075,"hidden":false,"type":"open_office"},{"id":60470,"name":"Банк \"Открытие\"(Банкомат Банк «Петрокоммерц», Азс Лукойл)","rur":true,"usd":false,"eur":false,"hours":"ежедневно: круглосуточно","address":"Московская Область, Раздоры Дер., Одинцовский Район, Шоссе Рублево-Успенское, 1 Км","lat":55.76495,"lon":37.36508,"hidden":true,"type":"open_office"},{"id":56761,"name":"Банк \"Траст\"","rur":true,"usd":false,"eur":false,"hours":"пн. - пт. с 10.00 до 18.00 суб.,воск. - выходной","address":"Набережная Гюллинга, Д. 2","lat":61.786468,"lon":34.391462,"hidden":false,"type":"open_office"},{"id":56768,"name":"Банк \"Траст\"","rur":true,"usd":false,"eur":false,"hours":"пн. - пт. с 10.00 до 18.00 суб.,воск. - выходной","address":"Пр. А.Зерюнова, Д.6","lat":63.558044,"lon":53.658097,"hidden":false,"type":"open_office"},{"id":60084,"name":"Банк \"Открытие\"(Банкомат Банк Открытие, Офис Банка)","rur":true,"usd":false,"eur":false,"hours":"ежедневно: круглосуточно","address":"Ул. Челюскинцев, Д.15,Банкомат Находится В Дополнительном Офисе Банка Справа От Входа","lat":55.04027,"lon":82.90649,"hidden":false,"type":"open_office"},{"id":56773,"name":"Банк \"Траст\"","rur":true,"usd":false,"eur":false,"hours":"пн. - пт. с 10.00 до 18.00 суб.,воск. - выходной","address":"Ул. Комсомольская, Д.122","lat":56.636748,"lon":47.893078,"hidden":false,"type":"open_office"},{"id":57861,"name":"Банк \"Траст\"(Офис Банка)","rur":true,"usd":false,"eur":false,"hours":"пн.-пт.: 10:00-19:00, сб.: 10:00-16:00, вс.: выходной","address":"Ул. Советская, Д. 38","lat":55.16146,"lon":61.40615,"hidden":true,"type":"open_office"},{"id":56782,"name":"Банк \"Траст\"","rur":true,"usd":false,"eur":false,"hours":"пн. - пт. с 10.00 до 18.00 суб.воск.-выходной","address":"Ул. Коммунистическая, Д. 23, Пом. 5","lat":54.184366,"lon":45.189661,"hidden":false,"type":"open_office"},{"id":56785,"name":"Банк \"Траст\"","rur":true,"usd":false,"eur":false,"hours":"пн. - пт. с 10.00 до 18.00 суб.воск.-выходной","address":"Ул. Кирова, Д.7","lat":62.024984,"lon":129.733579,"hidden":false,"type":"open_office"},{"id":56788,"name":"Банк \"Открытие\"","rur":true,"usd":false,"eur":false,"hours":"Пн-Пт: 09.30-18.30, Сб-Вс: выходной","address":"Ул.Пушкина, Д.9/51","lat":55.787665,"lon":49.121703,"hidden":false,"type":"open_office"},{"id":58825,"name":"Банк \"Открытие\"","rur":true,"usd":false,"eur":false,"hours":"Пн-Пт: 09.30-18.30, Сб-Вс: выходной","address":"Ул.Московская, Д.2а","lat":55.791865,"lon":49.103692,"hidden":false,"type":"open_office"},{"id":56797,"name":"Банк \"Траст\"","rur":true,"usd":false,"eur":false,"hours":"пн. - пт. с 08.00 до 18.00 суб.воск.-выходной","address":"Просп.Х.Туфана, Д.29а (14/05а)","lat":55.743553,"lon":52.39582,"hidden":false,"type":"open_office"},{"id":61877,"name":"Банк \"Открытие\"(Банкомат Банк Открытие, Азс Лукойл)","rur":true,"usd":false,"eur":false,"hours":"ежедневно: круглосуточно","address":"Ул. Экспериментальная, 7","lat":53.13093,"lon":45.0241,"hidden":false,"type":"open_office"},{"id":56802,"name":"Банк \"Траст\"","rur":true,"usd":false,"eur":false,"hours":"пн. - пт. с 10.00 до 18.00 суб., воск.-выходной","address":"Ул.Вахитова, Д.12, Пом.6","lat":55.63128,"lon":51.814385,"hidden":false,"type":"open_office"},{"id":56807,"name":"Банк \"Открытие\"","rur":true,"usd":false,"eur":false,"hours":"Пн-Пт: 09.00-19.00, Сб-Вс: выходной","address":"Ул.Максима Горького, Д.64","lat":56.843211,"lon":53.200854,"hidden":false,"type":"open_office"},{"id":56806,"name":"Банк \"Траст\"","rur":true,"usd":false,"eur":false,"hours":"пн. - пт. с 09.00 до 18.00 * операцион.-касс. обсл-е с 10.00 до 18.00 суб.,воск. - выходной","address":"Ул. Пушкинская, Д. 223","lat":56.854045,"lon":53.210565,"hidden":false,"type":"open_office"},{"id":60157,"name":"Банк \"Открытие\"(Банкомат Банк Открытие, Офис Банка)","rur":true,"usd":false,"eur":false,"hours":"пн.-пт.: 09:30-19:00, сб.-вс.: выходной","address":"Ул. 25 Октября, Д. 72","lat":58.00179,"lon":56.26174,"hidden":false,"type":"open_office"},{"id":56812,"name":"Банк \"Траст\"","rur":true,"usd":false,"eur":false,"hours":"пн. - пт. с 10.00 до 18.00 суб.воск.-выходной","address":"Улица Тараса Шевченко, Дом 90","lat":53.725755,"lon":91.456033,"hidden":false,"type":"open_office"},{"id":62324,"name":"Банк \"Открытие\"(Банкомат Банк Открытие, Офис Банка)","rur":true,"usd":false,"eur":false,"hours":"по режиму работы офиса","address":"Проспект Маршала Жукова, Д.36, Корп.1, Лит.А, Пом.17н","lat":59.85324,"lon":30.2248,"hidden":true,"type":"open_office"},{"id":56818,"name":"Банк \"Траст\"","rur":true,"usd":false,"eur":false,"hours":"пн. - пт. с 09.30 до 18.30 суб., воск. - выходной","address":"Пр. Ленина, Д. 6а","lat":56.129368,"lon":47.246506,"hidden":false,"type":"open_office"},{"id":56825,"name":"Банк \"Открытие\"","rur":true,"usd":false,"eur":false,"hours":"Пн-Пт: 09.00-19.00, Сб-Вс: выходной","address":"Проспект Социалистический, Д.117, 117а","lat":53.348677,"lon":83.765196,"hidden":false,"type":"open_office"},{"id":56824,"name":"Банк \"Траст\"","rur":true,"usd":false,"eur":false,"hours":"пн. - пт. с 10.00 до 19.00 суб. с 10.00 до 16.00 воск. -выходной","address":"Ул. Интернациональная, Д.140/ Радищева Переулок, Д.48","lat":53.333139,"lon":83.774808,"hidden":false,"type":"open_office"},{"id":56836,"name":"Банк \"Траст\"","rur":true,"usd":false,"eur":false,"hours":"пн. - пт. с 10.00 до 18.00 суб.,воск. - выходной","address":"Разина Улица, Д. 86/1","lat":52.508624,"lon":85.146536,"hidden":false,"type":"open_office"},{"id":62341,"name":"Банк \"Открытие\"(Банкомат Банк Открытие, Азс Лукойл)","rur":true,"usd":false,"eur":false,"hours":"ежедневно: круглосуточно","address":"Шоссе Хакурате, 651 Км","lat":44.6242,"lon":40.05534,"hidden":false,"type":"open_office"},{"id":62342,"name":"Банк \"Открытие\"(Банкомат Банк Открытие, Азс Лукойл)","rur":true,"usd":false,"eur":false,"hours":"ежедневно: 08:00-21:00","address":"Затонское Шоссе, 3","lat":54.76452,"lon":55.9458,"hidden":false,"type":"open_office"},{"id":56840,"name":"Банк \"Траст\"","rur":true,"usd":false,"eur":false,"hours":"пн. - пт. с 10.00 до 18.00 суб.,воск. - выходной","address":"Ленина Проспект, Д.46а","lat":51.522008,"lon":81.21408,"hidden":false,"type":"open_office"},{"id":56864,"name":"Банк \"Открытие\"","rur":true,"usd":false,"eur":false,"hours":"Пн-Чт: 09.00-18.00, Пт: 09.00-17.00, Сб-Вс: выходной","address":"Центральный Район, Пер.Морской, Дом №2","lat":43.576088,"lon":39.725855,"hidden":false,"type":"open_office"},{"id":58830,"name":"Банк \"Открытие\"","rur":true,"usd":false,"eur":false,"hours":"Пн-Пт: 09.30-19.00, Сб-Вс: выходной","address":"Западный Округ, Ул.Им.Тургенева, Дом №73 / Ул.Им.Рылеева, Дом №181","lat":45.04803,"lon":38.957877,"hidden":false,"type":"open_office"},{"id":56839,"name":"Банк \"Открытие\"(Банкомат Нб «Траст», Офис Банка)","rur":true,"usd":false,"eur":false,"hours":"ежедневно: круглосуточно","address":"Проспект Ленина, Д. 46-А","lat":51.52201,"lon":81.21408,"hidden":false,"type":"open_office"},{"id":62343,"name":"Банк \"Открытие\"(Банкомат Банк Открытие, Азс Лукойл)","rur":true,"usd":false,"eur":false,"hours":"ежедневно: 08:00-21:00","address":"Проспект Октября, 1, 1","lat":54.73987,"lon":55.98401,"hidden":false,"type":"open_office"},{"id":62344,"name":"Банк \"Открытие\"(Банкомат Банк Открытие, Азс Лукойл)","rur":true,"usd":false,"eur":false,"hours":"ежедневно: 7:00-21:00","address":"Ул. Техническая, 7","lat":53.66258,"lon":55.95002,"hidden":false,"type":"open_office"},{"id":62348,"name":"Банк \"Открытие\"(Банкомат Банк Открытие, Азс Лукойл)","rur":true,"usd":false,"eur":false,"hours":"ежедневно: круглосуточно","address":"Шоссе Воткинское, 17","lat":56.88911,"lon":53.23717,"hidden":false,"type":"open_office"},{"id":62349,"name":"Банк \"Открытие\"(Банкомат Банк Открытие, Азс Лукойл)","rur":true,"usd":false,"eur":false,"hours":"ежедневно: круглосуточно","address":"Ул. Клубная, 34","lat":56.83111,"lon":53.14885,"hidden":false,"type":"open_office"},{"id":56849,"name":"Банк \"Траст\"","rur":true,"usd":false,"eur":false,"hours":"пн. - пт. с 09.00 до 17.00 суб.,воск. - выходной","address":"Ул. Новороссийская, Д. 74-74а","lat":44.991612,"lon":41.073319,"hidden":false,"type":"open_office"},{"id":62350,"name":"Банк \"Открытие\"(Банкомат Банк Открытие, Азс Лукойл)","rur":true,"usd":false,"eur":false,"hours":"ежедневно: круглосуточно","address":"Ул. Буммашевская, 1","lat":56.88285,"lon":53.227,"hidden":false,"type":"open_office"},{"id":62351,"name":"Банк \"Открытие\"(Банкомат Банк Открытие, Азс Лукойл)","rur":true,"usd":false,"eur":false,"hours":"ежедневно: круглосуточно","address":"Шоссе Воткинское, 296","lat":56.9032,"lon":53.33548,"hidden":false,"type":"open_office"},{"id":56852,"name":"Банк \"Траст\"","rur":true,"usd":false,"eur":false,"hours":"пн. - пт. с 09.00 до 18.00 * операцион.-касс. обсл-е с 10.00 до 18.00 суб.,воск. - выходной","address":"Ул. Керченская, Дом №6.","lat":44.560691,"lon":38.079432,"hidden":false,"type":"open_office"},{"id":62352,"name":"Банк \"Открытие\"(Банкомат Банк Открытие, Азс Лукойл)","rur":true,"usd":false,"eur":false,"hours":"ежедневно: круглосуточно","address":"Ул. Либкнехта, 4","lat":56.83698,"lon":53.20478,"hidden":false,"type":"open_office"},{"id":56857,"name":"Банк \"Траст\"","rur":true,"usd":false,"eur":false,"hours":"пн. - пт. с 09.00 до 18.00 суб., воск. - выходной","address":"Ул. Исаева, Д. 6","lat":44.706086,"lon":37.784354,"hidden":false,"type":"open_office"},{"id":59136,"name":"Банк \"Открытие\"(Банкомат Банк «Петрокоммерц», Азс Лукойл)","rur":true,"usd":false,"eur":false,"hours":"ежедневно: круглосуточно","address":"Ул. Сагитаагиша, 2, 1","lat":54.72711,"lon":55.99367,"hidden":true,"type":"open_office"},{"id":62354,"name":"Банк \"Открытие\"(Банкомат Банк Открытие, Азс Лукойл)","rur":true,"usd":false,"eur":false,"hours":"ежедневно: круглосуточно","address":"Ул. Виноградная, 105","lat":43.61263,"lon":39.72089,"hidden":false,"type":"open_office"},{"id":59167,"name":"Банк \"Открытие\"(Банкомат Банк Открытие, Торговый Центр Нарткала)","rur":true,"usd":false,"eur":false,"hours":"ежедневно: 08:00-20:00","address":"Ул. Красная, Д. 3","lat":43.55363,"lon":43.85651,"hidden":false,"type":"open_office"},{"id":62355,"name":"Банк \"Открытие\"(Банкомат Банк Открытие, Азс Лукойл)","rur":true,"usd":false,"eur":false,"hours":"ежедневно: круглосуточно","address":"П. Красная Поляна, Ул., Защитников Кавказа, 1, Корпуса","lat":43.67052,"lon":40.18896,"hidden":false,"type":"open_office"},{"id":62356,"name":"Банк \"Открытие\"(Банкомат Банк Открытие, Азс Лукойл)","rur":true,"usd":false,"eur":false,"hours":"ежедневно: круглосуточно","address":"П. Бжид Трасса М4-Дон","lat":44.36659,"lon":38.69504,"hidden":false,"type":"open_office"},{"id":56863,"name":"Банк \"Траст\"","rur":true,"usd":false,"eur":false,"hours":"пн. - пт. с 09.00 до 18.00 суб. с 10.00 до 16.00 воск. -выходной","address":"Ул. Горького, 40","lat":43.586648,"lon":39.726215,"hidden":false,"type":"open_office"},{"id":61883,"name":"Банк \"Открытие\"(Банкомат Банк Открытие, Азс Лукойл)","rur":true,"usd":false,"eur":false,"hours":"ежедневно: круглосуточно","address":"Ул. Братская, 104","lat":57.97495,"lon":56.3298,"hidden":false,"type":"open_office"},{"id":56872,"name":"Банк \"Траст\"","rur":true,"usd":false,"eur":false,"hours":"пн. - пт. с 10.00 до 18.00 суб.воск.-выходной","address":"Ул. Терская, Д.№160/Ул. Красноармейская, Д. №28","lat":44.897736,"lon":37.323572,"hidden":false,"type":"open_office"},{"id":59219,"name":"Банк \"Открытие\"(Банкомат Банк Открытие, Офис Банка)","rur":true,"usd":false,"eur":false,"hours":"ежедневно: круглосуточно","address":"Ул. Пролетарская, Д. 14","lat":56.64482,"lon":47.89795,"hidden":false,"type":"open_office"},{"id":59229,"name":"Банк \"Открытие\"(Банкомат Банк Открытие, Офис Банка)","rur":true,"usd":false,"eur":false,"hours":"пн.-пт.: 09:30-18:30, сб.-вс.: выходной","address":"Ул. Пушкина, 9/51","lat":55.78773,"lon":49.12243,"hidden":false,"type":"open_office"},{"id":56834,"name":"Банк \"Открытие\"(Банкомат Нб «Траст», Офис Банка)","rur":true,"usd":false,"eur":false,"hours":"ежедневно: круглосуточно","address":"Ул. Разина, Д. 86/1","lat":52.50862,"lon":85.14654,"hidden":false,"type":"open_office"},{"id":62359,"name":"Банк \"Открытие\"(Банкомат Банк Открытие, Азс Лукойл)","rur":true,"usd":false,"eur":false,"hours":"ежедневно: круглосуточно","address":"Проспект Обводный Канал, 9, Стр., 3","lat":64.53633,"lon":40.55899,"hidden":false,"type":"open_office"},{"id":58834,"name":"Банк \"Открытие\"","rur":true,"usd":false,"eur":false,"hours":"Пн-Пт: 09.00-19.00, Сб-Вс: выходной","address":"Просп.Мира, Д.115 «А», Стр.1","lat":56.010065,"lon":92.838567,"hidden":false,"type":"open_office"},{"id":56878,"name":"Банк \"Открытие\"","rur":true,"usd":false,"eur":false,"hours":"Пн-Пт: 09.00-19.00, Сб-Вс: выходной","address":"Ул. Взлетная, Д. 2, Пом. 152","lat":56.03438,"lon":92.918221,"hidden":false,"type":"open_office"},{"id":61888,"name":"Банк \"Открытие\"(Банкомат Банк Открытие, Торговый Центр Семь Пятниц)","rur":true,"usd":false,"eur":false,"hours":"ежедневно: 10:00-21:00","address":"Ул. Революции, 60/1","lat":58.03316,"lon":56.24171,"hidden":false,"type":"open_office"},{"id":56885,"name":"Банк \"Открытие\"","rur":true,"usd":false,"eur":false,"hours":"Пн-Пт: 09.00-19.00, Сб-Вс: выходной","address":"Район Центральный, Пр-Т Ленинский, Д.19, Пом.155","lat":69.348903,"lon":88.199622,"hidden":false,"type":"open_office"},{"id":62360,"name":"Банк \"Открытие\"(Банкомат Банк Открытие, Азс Лукойл)","rur":true,"usd":false,"eur":false,"hours":"ежедневно: круглосуточно","address":"Ул. Рождественского, 2","lat":46.31853,"lon":48.03957,"hidden":false,"type":"open_office"},{"id":61757,"name":"Банк \"Открытие\"(Банкомат Банк Открытие, Офис Банка)","rur":true,"usd":false,"eur":false,"hours":"ежедневно: 09:00-19:00","address":"Барнаул Ленина Пр-Т., Д. 119","lat":53.3638,"lon":83.75845,"hidden":false,"type":"open_office"},{"id":62362,"name":"Банк \"Открытие\"(Банкомат Банк Открытие, Азс Лукойл)","rur":true,"usd":false,"eur":false,"hours":"ежедневно: круглосуточно","address":"Ул. 64-Йармии, 50а","lat":48.62582,"lon":44.42751,"hidden":false,"type":"open_office"},{"id":62363,"name":"Банк \"Открытие\"(Банкомат Банк Открытие, Азс Лукойл)","rur":true,"usd":false,"eur":false,"hours":"ежедневно: круглосуточно","address":"Ул. Им. Рокоссовского, 1/А","lat":48.70956,"lon":44.49045,"hidden":false,"type":"open_office"},{"id":62364,"name":"Банк \"Открытие\"(Банкомат Банк Открытие, Азс Лукойл)","rur":true,"usd":false,"eur":false,"hours":"ежедневно: круглосуточно","address":"Ул.Ангарская, 131б","lat":48.71987,"lon":44.44449,"hidden":false,"type":"open_office"},{"id":62365,"name":"Банк \"Открытие\"(Банкомат Банк Открытие, Азс Лукойл)","rur":true,"usd":false,"eur":false,"hours":"ежедневно: круглосуточно","address":"Ул. Железнодорожников, 75","lat":48.6852,"lon":44.30293,"hidden":false,"type":"open_office"},{"id":62361,"name":"Банк \"Открытие\"(Банкомат Банк Открытие, Азс Лукойл)","rur":true,"usd":false,"eur":false,"hours":"ежедневно: круглосуточно","address":"Ул. Дзержинского, 167/А","lat":46.34111,"lon":47.98767,"hidden":false,"type":"open_office"},{"id":62366,"name":"Банк \"Открытие\"(Банкомат Банк Открытие, Азс Лукойл)","rur":true,"usd":false,"eur":false,"hours":"ежедневно: круглосуточно","address":"Волгоградская Область, П. Михайловка, 786 Км Трассы Волгоград-Москва","lat":50.02848,"lon":43.19618,"hidden":false,"type":"open_office"},{"id":56850,"name":"Банк \"Открытие\"(Банкомат Нб «Траст», Офис Банка)","rur":true,"usd":false,"eur":false,"hours":"ежедневно: круглосуточно","address":"Ул. Керченская, Д. 6","lat":44.56069,"lon":38.07943,"hidden":false,"type":"open_office"},{"id":62367,"name":"Банк \"Открытие\"(Банкомат Банк Открытие, Азс Лукойл)","rur":true,"usd":false,"eur":false,"hours":"ежедневно: круглосуточно","address":"Ул. Им. Пархоменко, 57/А","lat":48.72395,"lon":44.52617,"hidden":false,"type":"open_office"},{"id":62368,"name":"Банк \"Открытие\"(Банкомат Банк Открытие, Азс Лукойл)","rur":true,"usd":false,"eur":false,"hours":"ежедневно: круглосуточно","address":"Шоссе Авиаторов, 1","lat":48.75533,"lon":44.47598,"hidden":false,"type":"open_office"},{"id":62369,"name":"Банк \"Открытие\"(Банкомат Банк Открытие, Азс Лукойл)","rur":true,"usd":false,"eur":false,"hours":"ежедневно: круглосуточно","address":"Ул. 6автодорога, 6/33","lat":48.81738,"lon":44.77684,"hidden":false,"type":"open_office"},{"id":56891,"name":"Банк \"Траст\"","rur":true,"usd":false,"eur":false,"hours":"пн. - пт. с 10.00 до 18.00 суб.воск.-выходной","address":"Ул. Урицкого, 16","lat":56.205706,"lon":95.700213,"hidden":false,"type":"open_office"},{"id":62370,"name":"Банк \"Открытие\"(Банкомат Банк Открытие, Азс Лукойл)","rur":true,"usd":false,"eur":false,"hours":"ежедневно: круглосуточно","address":"Ул. Горького, 1","lat":48.81355,"lon":44.73399,"hidden":false,"type":"open_office"},{"id":62373,"name":"Банк \"Открытие\"(Банкомат Банк Открытие, Азс Лукойл)","rur":true,"usd":false,"eur":false,"hours":"ежедневно: круглосуточно","address":"Ул. Волгоградская, 43","lat":50.07163,"lon":45.37714,"hidden":false,"type":"open_office"},{"id":62374,"name":"Банк \"Открытие\"(Банкомат Банк Открытие, Азс Лукойл)","rur":true,"usd":false,"eur":false,"hours":"ежедневно: круглосуточно","address":"Ул. Фрунзе, Д.107","lat":50.04567,"lon":43.21174,"hidden":false,"type":"open_office"},{"id":62239,"name":"Банк \"Открытие\"(Банкомат Банк Открытие, Офис Банка)","rur":true,"usd":false,"eur":false,"hours":"ежедневно: круглосуточно","address":"Ул. Комсомольская, 44/4","lat":49.76696,"lon":43.64884,"hidden":false,"type":"open_office"},{"id":56896,"name":"Банк \"Открытие\"","rur":true,"usd":false,"eur":false,"hours":"Пн-Пт: 09.00-19.00, Сб-Вс: выходной","address":"Ул. Светланская, 51","lat":43.114502,"lon":131.893273,"hidden":false,"type":"open_office"},{"id":58840,"name":"Банк \"Открытие\"","rur":true,"usd":false,"eur":false,"hours":"Пн-Чт: 09.30-17.30, Пт: 09.30-16.30, Сб-Вс: выходной","address":"Улица Мира, 437","lat":45.034834,"lon":41.942466,"hidden":false,"type":"open_office"},{"id":61759,"name":"Банк \"Открытие\"(Банкомат Банк Открытие, Гипермаркет Самбери-17)","rur":true,"usd":false,"eur":false,"hours":"ежедневно: 08:00-23:00","address":"Ул. Полетаева, Д. 6/Д","lat":43.21396,"lon":131.95055,"hidden":false,"type":"open_office"},{"id":59492,"name":"Банк \"Открытие\"(Банкомат Банк «Петрокоммерц», Азс Лукойл)","rur":true,"usd":false,"eur":false,"hours":"ежедневно: круглосуточно","address":"Ул. Им. Пархоменко, 57/А","lat":48.72395,"lon":44.52617,"hidden":true,"type":"open_office"},{"id":59140,"name":"Банк \"Открытие\"(Банкомат Банк «Петрокоммерц», Азс Лукойл)","rur":true,"usd":false,"eur":false,"hours":"ежедневно: круглосуточно","address":"Ул. Шафиева, 11","lat":54.76117,"lon":56.01051,"hidden":true,"type":"open_office"},{"id":56917,"name":"Банк \"Траст\"","rur":true,"usd":false,"eur":false,"hours":"пн. - пт. с 09.00 до 17.00 суб.воск.-выходной","address":"Улица Менделеева, 9","lat":44.636952,"lon":41.936376,"hidden":false,"type":"open_office"},{"id":56735,"name":"Банк \"Открытие\"(Банкомат Нб «Траст», Универсам Монетка)","rur":true,"usd":false,"eur":false,"hours":"ежедневно: 09:00-21:00","address":"Ул. Мира, Д. 1б","lat":53.61184,"lon":55.95226,"hidden":true,"type":"open_office"},{"id":59339,"name":"Банк \"Открытие\"(Банкомат Банк Открытие, Офис Банка)","rur":true,"usd":false,"eur":false,"hours":"пн.-пт.: 09:00-19:00, сб.-вс.: выходной","address":"Ул. Светланская, Д. 51","lat":43.1145,"lon":131.89327,"hidden":false,"type":"open_office"},{"id":57588,"name":"Банк \"Открытие\"(Банкомат Нб «Траст», Почта (Вход Со Стороны Площади Победы, 1этаж ))","rur":true,"usd":false,"eur":false,"hours":"пн.-пт.: 09:00-20:00, сб.-вс.: выходной","address":"Ул. Ленина, Д. 60","lat":47.51751,"lon":42.15296,"hidden":false,"type":"open_office"},{"id":56924,"name":"Банк \"Траст\"(Офис Банка)","rur":true,"usd":false,"eur":false,"hours":"ежедневно: круглосуточно","address":"Ул. Почтовая, Д. 24","lat":44.21221,"lon":43.13334,"hidden":true,"type":"open_office"},{"id":59146,"name":"Банк \"Открытие\"(Банкомат Банк«Петрокоммерц», Азс Лукойл)","rur":true,"usd":false,"eur":false,"hours":"ежедневно: 08:00-21:00","address":"Ул. 23 Мая, 155","lat":53.61628,"lon":55.932,"hidden":true,"type":"open_office"},{"id":59134,"name":"Банк \"Открытие\"(Банкомат Банк «Петрокоммерц», Азс Лукойл)","rur":true,"usd":false,"eur":false,"hours":"ежедневно:  08:00 -22:00","address":"Ул. Комсомольская, 108","lat":54.752,"lon":56.00692,"hidden":true,"type":"open_office"},{"id":61892,"name":"Банк \"Открытие\"(Банкомат Банк Открытие, Офис Банка)","rur":true,"usd":false,"eur":false,"hours":"ежедневно: 09:00-18:00","address":"Ул. Просвещения, 155/Б","lat":47.41505,"lon":40.08414,"hidden":false,"type":"open_office"},{"id":56931,"name":"Банк \"Открытие\"","rur":true,"usd":false,"eur":false,"hours":"Пн-Пт: 10.00-19.00, Сб-Вс: выходной","address":"Ул.Суворова, Д.44","lat":48.391611,"lon":135.112467,"hidden":false,"type":"open_office"},{"id":56932,"name":"Банк \"Открытие\"","rur":true,"usd":false,"eur":false,"hours":"Пн-Пт: 09.00-19.00, Сб: 09.00-16.00, Вс: выходной","address":"Бульвар Амурский, Д.18","lat":48.478587,"lon":135.061083,"hidden":false,"type":"open_office"},{"id":58841,"name":"Банк \"Открытие\"","rur":true,"usd":false,"eur":false,"hours":"Пн-Пт: 10.00-19.00, Сб: 10.00-16.00, Вс: выходной","address":"Ул. Тихоокеанская, Д. 191а","lat":48.541922,"lon":135.041473,"hidden":false,"type":"open_office"},{"id":56955,"name":"Банк \"Открытие\"","rur":true,"usd":false,"eur":false,"hours":"Пн-Пт: 09.00-19.00, Сб: 09.00-.16.00, Вс: выходной","address":"Проспект Ленина, Д.2, Корп.2","lat":50.558908,"lon":137.02145,"hidden":false,"type":"open_office"},{"id":59141,"name":"Банк \"Открытие\"(Банкомат Банк «Петрокоммерц», Азс Лукойл)","rur":true,"usd":false,"eur":false,"hours":"ежедневно: круглосуточно","address":"Ул. Первомайская, 70","lat":53.41307,"lon":55.9287,"hidden":true,"type":"open_office"},{"id":56930,"name":"Банк \"Траст\"","rur":true,"usd":false,"eur":false,"hours":"пн. - пт.с 10.00 до 19.00 суб. с 10.00 до 16.00 воск. -выходной","address":"Ул. Шеронова, 66","lat":48.478145,"lon":135.070884,"hidden":false,"type":"open_office"},{"id":61100,"name":"Банк \"Открытие\"(Банкомат Ханты-Мансийский Банк, Дом Дружбы Народов)","rur":true,"usd":false,"eur":false,"hours":"пн.-пт.: 09:00-17:00 , сб.-вс.: выходные","address":"Ул. Мира, 14а","lat":61.00433,"lon":69.01956,"hidden":false,"type":"open_office"},{"id":59534,"name":"Банк \"Открытие\"(Банкомат Банк«Петрокоммерц», Азс Лукойл)","rur":true,"usd":false,"eur":false,"hours":"ежедневно: круглосуточно","address":"Проспект Жукова 94а","lat":48.73904,"lon":44.49233,"hidden":true,"type":"open_office"},{"id":60314,"name":"Банк \"Открытие\"(Банкомат Банк Открытие, Офис Банка)","rur":true,"usd":false,"eur":false,"hours":"ежедневно: круглосуточно","address":"Ул. Дзержинского, Д. 55","lat":54.62094,"lon":39.72384,"hidden":false,"type":"open_office"},{"id":59135,"name":"Банк \"Открытие\"(Банкомат Банк «Петрокоммерц», Азс Лукойл)","rur":true,"usd":false,"eur":false,"hours":"ежедневно: круглосуточно","address":"Ул. Правды/Центральная","lat":54.70395,"lon":55.84711,"hidden":true,"type":"open_office"},{"id":59138,"name":"Банк \"Открытие\"(Банкомат Банк«Петрокоммерц», Азс Лукойл)","rur":true,"usd":false,"eur":false,"hours":"ежедневно: круглосуточно","address":"Ул. Степана Кувыкина, Д. 43","lat":54.71227,"lon":56.00052,"hidden":true,"type":"open_office"},{"id":59144,"name":"Банк \"Открытие\"(Банкомат Банк«Петрокоммерц», Азс Лукойл)","rur":true,"usd":false,"eur":false,"hours":"ежедневно: круглосуточно","address":"Московская Область, П. Совхоза Останкино, Шоссе Рогачевское, 10 Км","lat":56.04661,"lon":37.41773,"hidden":true,"type":"open_office"},{"id":56732,"name":"Банк \"Траст\"(Офис Банка)","rur":true,"usd":false,"eur":false,"hours":"пн.-пт.: 10:00-19:00, сб.-вс.: выходной","address":"Ул. Островского, Д. 13/32","lat":53.35192,"lon":55.9352,"hidden":true,"type":"open_office"},{"id":59513,"name":"Банк \"Открытие\"(Банкомат Банк «Петрокоммерц», Торговый Комплекс Комсомол, Восточный Вход)","rur":true,"usd":false,"eur":false,"hours":"ежедневно: 09:00-22:00","address":"Ул. Землячки, Д.110б","lat":48.7439,"lon":44.5194,"hidden":false,"type":"open_office"},{"id":62377,"name":"Банк \"Открытие\"(Банкомат Банк Открытие, Азс Лукойл)","rur":true,"usd":false,"eur":false,"hours":"ежедневно: круглосуточно","address":"Воронежская Область, Новоусманский Р-Н, П. Воронежский Ул., Советская, 41/А","lat":51.50693,"lon":39.30556,"hidden":false,"type":"open_office"},{"id":57010,"name":"Банк \"Траст\"(Офис Банка)","rur":true,"usd":false,"eur":false,"hours":"пн.-пт.: 09:00-19:00, сб.: 10:00-16:00, вс.: выходной","address":"Ул. Невская, Д. 13а","lat":48.71798,"lon":44.50747,"hidden":true,"type":"open_office"},{"id":59512,"name":"Банк \"Открытие\"(Банкомат Банк «Петрокоммерц», Азс Лукойл)","rur":true,"usd":false,"eur":false,"hours":"ежедневно: круглосуточно","address":"Ул. Землячки, 74/Б","lat":48.76142,"lon":44.50926,"hidden":true,"type":"open_office"},{"id":62378,"name":"Банк \"Открытие\"(Банкомат Банк Открытие, Азс Лукойл)","rur":true,"usd":false,"eur":false,"hours":"ежедневно: круглосуточно","address":"Воронежская Область, Семилукский Р-Н, 210 Км+690 Ма/Д Курск-Воронеж-Борисоглебск","lat":51.64565,"lon":39.02269,"hidden":false,"type":"open_office"},{"id":59665,"name":"Банк \"Открытие\"(Банкомат «Фк Открытие», Филиал Петрокоммерц , Офис Банка)","rur":true,"usd":false,"eur":false,"hours":"ежедневно: круглосуточно","address":"Ул. Урицкого, 10","lat":51.68333,"lon":39.21239,"hidden":true,"type":"open_office"},{"id":57088,"name":"Банк \"Открытие\"(Кинотеатр \"Ровесник\")","rur":true,"usd":false,"eur":false,"hours":"ежедневно 9:00 - 23:00","address":"Пр-Т Красных Партизан, Д. 53","lat":52.730867,"lon":103.656214,"hidden":true,"type":"open_atm"},{"id":57080,"name":"Банк \"Открытие\"(Оо \"Иркутский\")","rur":true,"usd":false,"eur":false,"hours":"круглосуточно","address":"Ул. Чкалова, Д. 36","lat":52.288756,"lon":104.276681,"hidden":true,"type":"open_atm"},{"id":62380,"name":"Банк \"Открытие\"(Банкомат Банк Открытие, Азс Лукойл)","rur":true,"usd":false,"eur":false,"hours":"ежедневно: круглосуточно","address":"Ул. Олега Кошевого, 45","lat":54.6682,"lon":20.51246,"hidden":false,"type":"open_office"},{"id":56960,"name":"Банк \"Открытие\"","rur":true,"usd":false,"eur":false,"hours":"Пн-Чт: 09.30-19.00, Пт: 09.30-19-00, Сб-Вс: выходной","address":"Улица Горького, Д. 154, Пом. 1","lat":50.265409,"lon":127.537468,"hidden":false,"type":"open_office"},{"id":58849,"name":"Банк \"Открытие\"","rur":true,"usd":false,"eur":false,"hours":"Пн-Пт: 09.30-19.00, Сб-Вс: выходной","address":"Ул.Шубина, Д.44, Корп.2","lat":64.554893,"lon":40.535597,"hidden":false,"type":"open_office"},{"id":58850,"name":"Банк \"Открытие\"","rur":true,"usd":false,"eur":false,"hours":"Пн-Пт: 09.00-18.00, Сб-Вс: выходной","address":"Ул.Савушкина, №32б, Литер Г","lat":46.366901,"lon":48.048145,"hidden":false,"type":"open_office"},{"id":56967,"name":"Банк \"Траст\"","rur":true,"usd":false,"eur":false,"hours":"пн. - пт. с 10.00 до 19.00 суб., воск. - выходной","address":"Пр. Труда, Д.3","lat":64.562714,"lon":39.796616,"hidden":false,"type":"open_office"},{"id":56971,"name":"Банк \"Траст\"","rur":true,"usd":false,"eur":false,"hours":"пн. - пт. с 9.00 до 18.00 суб.,воск. - выходной","address":"Кировский Район, Ул. Эспланадная, № 37а / Ул. Коммунистическая, № 16а, Литер А","lat":46.351732,"lon":48.039431,"hidden":false,"type":"open_office"},{"id":59204,"name":"Банк \"Открытие\"(Банкомат Банк«Петрокоммерц», Административное Здание Ифнс)","rur":true,"usd":false,"eur":false,"hours":"ежедневно: 06:00-20:00","address":"Ул. Нефтяников, 33","lat":65.99469,"lon":57.55899,"hidden":true,"type":"open_office"},{"id":56977,"name":"Банк \"Открытие\"","rur":true,"usd":false,"eur":false,"hours":"Пн-Пт: 09.00-19.00, Сб-Вс: выходной","address":"Свято – Троицкий Бульвар, 1","lat":50.595117,"lon":36.585157,"hidden":false,"type":"open_office"},{"id":56976,"name":"Банк \"Траст\"","rur":true,"usd":false,"eur":false,"hours":"пн. - пт. с 10.00 до 18.00 суб. ,воск.-выходной","address":"Ул. Первомайская, 13а","lat":50.602961,"lon":36.602045,"hidden":false,"type":"open_office"},{"id":59574,"name":"Банк \"Открытие\"(Банкомат Банк«Петрокоммерц», Торгово-Развлекательный Центр Волгамолл)","rur":true,"usd":false,"eur":false,"hours":"ежедневно: 10:00-23:00","address":"Ул.Александрова, 18","lat":48.77152,"lon":44.80179,"hidden":true,"type":"open_office"},{"id":60404,"name":"Банк \"Открытие\"(Банкомат Банк Открытие, Офис Банка)","rur":true,"usd":false,"eur":false,"hours":"пн.-сб.: 09:00-20:00 ","address":"Ул. 8 Марта, 37","lat":56.83101,"lon":60.60156,"hidden":false,"type":"open_office"},{"id":62382,"name":"Банк \"Открытие\"(Банкомат Банк Открытие, Азс Лукойл)","rur":true,"usd":false,"eur":false,"hours":"ежедневно: круглосуточно","address":"П. Кирпичное, 98 Км.А\\Д E-18","lat":60.46902,"lon":29.36648,"hidden":false,"type":"open_office"},{"id":56989,"name":"Банк \"Траст\"","rur":true,"usd":false,"eur":false,"hours":"пн. - пт. с 10.00 до 19.00 суб., воск. -выходной","address":"Ул. Советская, Д.100","lat":53.260414,"lon":34.341776,"hidden":false,"type":"open_office"},{"id":62384,"name":"Банк \"Открытие\"(Банкомат Банк Открытие, Азс Лукойл)","rur":true,"usd":false,"eur":false,"hours":"ежедневно: круглосуточно","address":"Шоссе Ленинградское, 23 Км, Левая Сторона","lat":55.90891,"lon":37.40751,"hidden":false,"type":"open_office"},{"id":58212,"name":"Банк \"Открытие\"(Банкомат Ханты-Мансийский Банк, Угибдд Умвд По Хмао-Югре)","rur":true,"usd":false,"eur":false,"hours":"вт.-вс.: 08:00-19:00","address":"Ул. Мира, 110","lat":61.0118,"lon":69.05589,"hidden":false,"type":"open_office"},{"id":56996,"name":"Банк \"Траст\"","rur":true,"usd":false,"eur":false,"hours":"пн. - пт. с 09.00 до 19.00 суб. с 10.00 до 16.00 воск. -выходной","address":"Ул. Мира, Д. 34","lat":56.139923,"lon":40.405395,"hidden":false,"type":"open_office"},{"id":58824,"name":"Банк \"Открытие\"(Оо \"Йошкар-Олинский\")","rur":true,"usd":false,"eur":false,"hours":"пн.-пт. 9:30-19:00, сб. 10:00-16:00 (Общедоступен)","address":"Ул. Пролетарская, Д. 14","lat":56.644817,"lon":47.897695,"hidden":true,"type":"open_atm"},{"id":56769,"name":"Банк \"Траст\"(Офис Банка)","rur":true,"usd":false,"eur":false,"hours":"пн.-пт.: 09:00-18:00, сб.-вс.: выходной","address":"Ул. Комсомольская, Д. 122","lat":56.63677,"lon":47.89306,"hidden":true,"type":"open_office"},{"id":57001,"name":"Банк \"Траст\"","rur":true,"usd":false,"eur":false,"hours":"пн. - пт. с 09.00 до 18.00 суб.,воск. - выходной","address":"Проспект Ленина, Д.49","lat":56.353595,"lon":41.311472,"hidden":false,"type":"open_office"},{"id":57004,"name":"Банк \"Траст\"","rur":true,"usd":false,"eur":false,"hours":"пн. - пт. с 09.00 до 18.00 суб.,воск. - выходной","address":"Ул. Советская, Д. 47","lat":55.575709,"lon":42.04306,"hidden":false,"type":"open_office"},{"id":62385,"name":"Банк \"Открытие\"(Банкомат Банк Открытие, Азс Лукойл)","rur":true,"usd":false,"eur":false,"hours":"ежедневно: круглосуточно","address":"Шоссе Ленинградское, 30","lat":55.90389,"lon":37.418,"hidden":false,"type":"open_office"},{"id":57016,"name":"Банк \"Открытие\"","rur":true,"usd":false,"eur":false,"hours":"Пн-Пт: 09.00-18.00, Сб: 09.00-16.00, Вс: выходной","address":"Пр-Кт  Им. Героев Сталинграда, 40","lat":48.514027,"lon":44.550617,"hidden":false,"type":"open_office"},{"id":58852,"name":"Банк \"Открытие\"","rur":true,"usd":false,"eur":false,"hours":"Пн-Пт: 09.00-20.00, Сб-Вс: выходной","address":"Пр-Т Им.В.И.Ленина, 22а","lat":48.711229,"lon":44.524485,"hidden":false,"type":"open_office"},{"id":58853,"name":"Банк \"Открытие\"","rur":true,"usd":false,"eur":false,"hours":"Пн-Пт: 09.00-19.00, Сб-Вс: выходной","address":"Улица Мира, 54в","lat":48.77205,"lon":44.802882,"hidden":false,"type":"open_office"},{"id":57027,"name":"Банк \"Открытие\"","rur":true,"usd":false,"eur":false,"hours":"Пн-Пт: 09.30-19.00, Сб-Вс: выходной","address":"Ул.Ленина, Д.34, Помещение №115/2","lat":50.100897,"lon":45.424893,"hidden":false,"type":"open_office"},{"id":62386,"name":"Банк \"Открытие\"(Банкомат Банк Открытие, Азс Лукойл)","rur":true,"usd":false,"eur":false,"hours":"ежедневно: круглосуточно","address":"Шоссе Новорязанское, 10,Банкомат Находится При Входе В Минимаркет Наазс \"Лукойл\"","lat":55.65735,"lon":37.89435,"hidden":false,"type":"open_office"},{"id":62387,"name":"Банк \"Открытие\"(Банкомат Банк Открытие, Киа Центр Агалат)","rur":true,"usd":false,"eur":false,"hours":"ежедневно: 8:00-20:00 ","address":"9-Й Ленинский Пер-К, Д. 11","lat":55.88761,"lon":37.73485,"hidden":false,"type":"open_office"},{"id":62388,"name":"Банк \"Открытие\"(Банкомат Банк Открытие, Азс Лукойл)","rur":true,"usd":false,"eur":false,"hours":"ежедневно: круглосуточно","address":"Московская Область, Одинцовский Район, Шоссе Минское, 19 Км","lat":55.62358,"lon":37.15417,"hidden":false,"type":"open_office"},{"id":58826,"name":"Банк \"Открытие\"(Офис Банка Бфко)","rur":true,"usd":false,"eur":false,"hours":"круглосуточно (Общедоступен)","address":"Ул. К. Маркса, Д. 11/12","lat":55.797407,"lon":49.113358,"hidden":true,"type":"open_atm"},{"id":58827,"name":"Банк \"Открытие\"(Тц \"Южный\")","rur":true,"usd":false,"eur":false,"hours":"9.00-24.00 (Общедоступен)","address":"Пр-Т Победы, Д. 91","lat":55.768355,"lon":49.217176,"hidden":true,"type":"open_atm"},{"id":57014,"name":"Банк \"Траст\"","rur":true,"usd":false,"eur":false,"hours":"пн. - пт. с 09.00 до 19.00 суб. с 10.00 до 16.00 воск. -выходной","address":"Ул. Невская, Д.13а","lat":48.717982,"lon":44.507471,"hidden":false,"type":"open_office"},{"id":57015,"name":"Банк \"Траст\"","rur":true,"usd":false,"eur":false,"hours":"пн. - пт. с 10.00 до 18.00 суб.,воск. - выходной","address":"Проспект Им. Героев Сталинграда, Д.48","lat":48.512619,"lon":44.545209,"hidden":false,"type":"open_office"},{"id":56787,"name":"Банк \"Открытие\"(Банкомат Банкомат Нб «Траст», Офис Банка)","rur":true,"usd":false,"eur":false,"hours":"пн.-пт.: 10:00-18:00, сб.-вс.: выходной","address":"Ул. Московская, Д. 2а","lat":55.79187,"lon":49.10369,"hidden":true,"type":"open_office"},{"id":56798,"name":"Банк \"Открытие\"(Бц \"2.18\")","rur":true,"usd":false,"eur":false,"hours":"09.00-22.00","address":"Пр-Т Хасана Туфана, Д. 12","lat":55.740755,"lon":52.41464,"hidden":true,"type":"open_atm"},{"id":56786,"name":"Банк \"Открытие\"(Банкомат Нб «Траст», Офис Банка)","rur":true,"usd":false,"eur":false,"hours":"ежедневно: круглосуточно","address":"Ул. Московская, Д. 2а","lat":55.79187,"lon":49.10369,"hidden":true,"type":"open_office"},{"id":62389,"name":"Банк \"Открытие\"(Банкомат Банк Открытие, Азс Лукойл)","rur":true,"usd":false,"eur":false,"hours":"ежедневно: круглосуточно","address":"Московская Область, Рузский Район, Д. Таблово, Сооружение № 16а","lat":55.7326,"lon":36.22209,"hidden":false,"type":"open_office"},{"id":57003,"name":"Банк \"Открытие\"(Банкомат Нб «Траст», Офис Банка)","rur":true,"usd":false,"eur":false,"hours":"ежедневно: круглосуточно","address":"Ул. Советская, Д. 47","lat":55.57571,"lon":42.04306,"hidden":false,"type":"open_office"},{"id":62390,"name":"Банк \"Открытие\"(Банкомат Банк Открытие, Азс Лукойл)","rur":true,"usd":false,"eur":false,"hours":"в режиме работы АЗС","address":"Проспект Гагарина, 31/А,1","lat":56.2884,"lon":43.98062,"hidden":false,"type":"open_office"},{"id":62391,"name":"Банк \"Открытие\"(Банкомат Банк Открытие, Азс Лукойл)","rur":true,"usd":false,"eur":false,"hours":"в режиме работы АЗС","address":"Ул. Голубева 3а.","lat":56.28839,"lon":43.95361,"hidden":false,"type":"open_office"},{"id":62392,"name":"Банк \"Открытие\"(Банкомат Банк Открытие, Азс Лукойл)","rur":true,"usd":false,"eur":false,"hours":"в режиме работы АЗС","address":"Гавриловское Ш., Д. 1, Корп. 2","lat":56.24299,"lon":43.7246,"hidden":false,"type":"open_office"},{"id":56999,"name":"Банк \"Открытие\"(Банкомат Нб «Траст», Офис Банка)","rur":true,"usd":false,"eur":false,"hours":"ежедневно: круглосуточно","address":"Проспект Ленина, Д. 49","lat":56.3536,"lon":41.31147,"hidden":false,"type":"open_office"},{"id":62393,"name":"Банк \"Открытие\"(Банкомат Банк Открытие, Азс Лукойл)","rur":true,"usd":false,"eur":false,"hours":"в режиме работы АЗС","address":"Промзона, 1а","lat":56.11709,"lon":44.15345,"hidden":false,"type":"open_office"},{"id":57034,"name":"Банк \"Траст\"","rur":true,"usd":false,"eur":false,"hours":"пн. - пт. с 10.00 до 18.00 суб.,воск. - выходной","address":"Улица Зосимовская, Дом 107","lat":59.208083,"lon":39.888495,"hidden":false,"type":"open_office"},{"id":61169,"name":"Банк \"Открытие\"(Банкомат Ханты-Мансийский Банк, Офис Банка)","rur":true,"usd":false,"eur":false,"hours":"пн.-пт.: 08:00-19:00 ,сб.-вс.: выходные","address":"Ул. Комсомольская, 9","lat":61.25366,"lon":75.18934,"hidden":false,"type":"open_office"},{"id":62394,"name":"Банк \"Открытие\"(Банкомат Банк Открытие, Филиал Мцп)","rur":true,"usd":false,"eur":false,"hours":"ежедневно: 00:9:00 до 19-00","address":"Ул. Державина Д. 14","lat":55.03817,"lon":82.91951,"hidden":false,"type":"open_office"},{"id":56993,"name":"Банк \"Открытие\"(Банкомат Нб «Траст», Гипермаркет Глобус, Справой Стороны От Экспресс Касс)","rur":true,"usd":false,"eur":false,"hours":"ежедневно: 06:00-23:00","address":"Проспект Суздальский, Д. 28","lat":56.17665,"lon":40.46012,"hidden":false,"type":"open_office"},{"id":57040,"name":"Банк \"Траст\"","rur":true,"usd":false,"eur":false,"hours":"пн. - пт. с 10.00 до 19.00 суб. с 10.00 до 16.00 воск. -выходной","address":"Ул. Социалистическая, Дом 48/33","lat":59.123527,"lon":37.933258,"hidden":false,"type":"open_office"},{"id":57046,"name":"Банк \"Открытие\"","rur":true,"usd":false,"eur":false,"hours":"Пн-Пт: 09.00-20.00, Сб: 09.00-20.00, Вс: выходной","address":"Ул. Кирова, Д.11, Пом.Viii","lat":51.656495,"lon":39.190648,"hidden":false,"type":"open_office"},{"id":57045,"name":"Банк \"Открытие\"","rur":true,"usd":false,"eur":false,"hours":"Пн-Пт: 09.00-19.00, Сб-Вс: выходной","address":"Ул. Кольцовская, Д.76","lat":51.660546,"lon":39.185797,"hidden":false,"type":"open_office"},{"id":56817,"name":"Банк \"Траст\"(Офис Банка)","rur":true,"usd":false,"eur":false,"hours":"пн.-пт.: 09:30-18:30, сб.-вс.: выходной","address":"Проспект Ленина, Д. 6а","lat":56.12937,"lon":47.24651,"hidden":true,"type":"open_office"},{"id":57044,"name":"Банк \"Траст\"","rur":true,"usd":false,"eur":false,"hours":"пн. - пт. с 10.00 до 19.00 суб. с 10.00 до 16.00 воск. -выходной","address":"Ленинский Район, Ул. 20-Летия Октября, Д. 90а","lat":51.65483,"lon":39.189355,"hidden":false,"type":"open_office"},{"id":56837,"name":"Банк \"Открытие\"(Трц \"Park\")","rur":true,"usd":false,"eur":false,"hours":"пн-вс: 10:00-21:00","address":"Ул. Деповская, Д. 22","lat":53.412638,"lon":83.929525,"hidden":true,"type":"open_atm"},{"id":56827,"name":"Банк \"Открытие\"","rur":true,"usd":false,"eur":false,"hours":"пн-вс с 8:00 - 23:00","address":"Пр. Красноармейский, Д. 47","lat":53.33479,"lon":83.776982,"hidden":true,"type":"open_atm"},{"id":57057,"name":"Банк \"Траст\"","rur":true,"usd":false,"eur":false,"hours":"пн. - пт. с 09.00 до 19.00 суб., воск. -выходной","address":"Пер. Семеновского, Д. 10","lat":56.996225,"lon":40.972331,"hidden":false,"type":"open_office"},{"id":57064,"name":"Банк \"Открытие\"","rur":true,"usd":false,"eur":false,"hours":"Пн-Пт: 09.00-19.00, Сб-Вс: выходной","address":"Ул. Чкалова, Д.36","lat":52.288756,"lon":104.276681,"hidden":false,"type":"open_office"},{"id":56829,"name":"Банк \"Открытие\"(Тц \"Бум\", 1 Этаж У Главного Входа)","rur":true,"usd":false,"eur":false,"hours":"ежедневно: 10:00 - 21:00 (Общедоступный)","address":"Ул. Попова, Д. 86","lat":53.367685,"lon":83.675302,"hidden":true,"type":"open_atm"},{"id":59255,"name":"Банк \"Открытие\"(Торговый Центр Норд-Вест)","rur":true,"usd":false,"eur":false,"hours":"ежедневно: 10:00-21:00","address":"Барнаул., Проспект Ленина, Д. 155","lat":53.37192,"lon":83.74941,"hidden":true,"type":"open_office"},{"id":57063,"name":"Банк \"Траст\"","rur":true,"usd":false,"eur":false,"hours":"пн. - пт. с 10.00 до 19.00 суб. с 10.00 до 16.00 воск. -выходной","address":"Бул. Гагарина, Д. 40","lat":52.280525,"lon":104.274884,"hidden":false,"type":"open_office"},{"id":62212,"name":"Банк \"Открытие\"(Банкомат Банк Открытие, Офис Банка)","rur":true,"usd":false,"eur":false,"hours":"по режиму работы офиса","address":"Ул. Им. Тургенева/Им. Рылеева, Д. 73/181","lat":45.05039,"lon":38.94287,"hidden":true,"type":"open_office"},{"id":62395,"name":"Банк \"Открытие\"(Банкомат Банк Открытие, Азс Лукойл)","rur":true,"usd":false,"eur":false,"hours":"ежедневно: круглосуточно","address":"Шоссе Илекское, 2","lat":51.73067,"lon":55.07637,"hidden":false,"type":"open_office"},{"id":62396,"name":"Банк \"Открытие\"(Банкомат Банк Открытие, Азс Лукойл)","rur":true,"usd":false,"eur":false,"hours":"ежедневно: 08:00-20:00","address":"Шоссе Космонавтов, 164","lat":57.96769,"lon":56.14861,"hidden":false,"type":"open_office"},{"id":59314,"name":"Банк \"Открытие\"(Банкомат Банк «Петрокоммерц», Азс Лукойл)","rur":true,"usd":false,"eur":false,"hours":"ежедневно: круглосуточно","address":"Краснодарский Край, П. Дагомыс, Шоссе Батумское, 34","lat":43.66162,"lon":39.67297,"hidden":true,"type":"open_office"},{"id":61197,"name":"Банк \"Открытие\"(Банкомат Ханты-Мансийский Банк, Магазин Солнышко)","rur":true,"usd":false,"eur":false,"hours":"ежедневно: круглосуточно","address":"Ул. 50 Лет Октября, 10","lat":61.0343,"lon":76.11318,"hidden":false,"type":"open_office"},{"id":62397,"name":"Банк \"Открытие\"(Банкомат Банк Открытие, Азс Лукойл)","rur":true,"usd":false,"eur":false,"hours":"ежедневно: круглосуточно","address":"Ул. Докучаева, 29","lat":58.03698,"lon":56.14606,"hidden":false,"type":"open_office"},{"id":62398,"name":"Банк \"Открытие\"(Банкомат Банк Открытие, Азс Лукойл)","rur":true,"usd":false,"eur":false,"hours":"ежедневно: круглосуточно","address":"Ул. Цимлянская, 13","lat":58.13163,"lon":56.39409,"hidden":false,"type":"open_office"},{"id":57011,"name":"Банк \"Открытие\"(Банкомат Нб «Траст», Офис Банка)","rur":true,"usd":false,"eur":false,"hours":"пн.-пт.: 09:00-19:00, сб.: 10:00-16:00, вс.: выходной","address":"Ул. Невская, Д. 13а","lat":48.71798,"lon":44.50747,"hidden":false,"type":"open_office"},{"id":58860,"name":"Банк \"Открытие\"","rur":true,"usd":false,"eur":false,"hours":"Пн-Пт: 09.00-19.00, Сб: 10.00-16.00, Вс: выходной","address":"Ул. Куйбышева, Дом №11","lat":54.726829,"lon":20.529774,"hidden":false,"type":"open_office"},{"id":59640,"name":"Банк \"Открытие\"(Банкомат Банк «Петрокоммерц», Азс Лукойл)","rur":true,"usd":false,"eur":false,"hours":"ежедневно: круглосуточно","address":"Волгоградская Область, П. Суровикиноа/Д Волгоград-Каменск-Шахтинский, 132 Км","lat":48.61657,"lon":42.82745,"hidden":true,"type":"open_office"},{"id":57086,"name":"Банк \"Траст\"","rur":true,"usd":false,"eur":false,"hours":"пн. - пт. с 10.00 до 18.00 суб.,воск. - выходной","address":"Ленинградский Проспект, Д. 6","lat":52.532034,"lon":103.862441,"hidden":false,"type":"open_office"},{"id":62399,"name":"Банк \"Открытие\"(Банкомат Банк Открытие, Азс Лукойл)","rur":true,"usd":false,"eur":false,"hours":"ежедневно: круглосуточно","address":"Ул. Цимлянская, 50","lat":58.14435,"lon":56.42056,"hidden":false,"type":"open_office"},{"id":62401,"name":"Банк \"Открытие\"(Банкомат Банк Открытие, Азс Лукойл)","rur":true,"usd":false,"eur":false,"hours":"ежедневно: круглосуточно","address":"Ул. Сивашская, 14","lat":58.00517,"lon":55.91333,"hidden":false,"type":"open_office"},{"id":62402,"name":"Банк \"Открытие\"(Банкомат Банк Открытие, Азс Лукойл)","rur":true,"usd":false,"eur":false,"hours":"ежедневно: 08:00-22:00","address":"Ул. Яблочкова, 36","lat":57.96952,"lon":56.23131,"hidden":false,"type":"open_office"},{"id":60223,"name":"Банк \"Открытие\"(Банкомат Банк «Петрокоммерц», Азс Лукойл)","rur":true,"usd":false,"eur":false,"hours":"ежедневно: 08:00-22:00","address":"Ул. Яблочкова, 36","lat":57.96952,"lon":56.23131,"hidden":true,"type":"open_office"},{"id":62404,"name":"Банк \"Открытие\"(Банкомат Банк Открытие, Азс Лукойл)","rur":true,"usd":false,"eur":false,"hours":"ежедневно: круглосуточно","address":"Автодорога М-4 Дон-2, 954 Км (Слева)","lat":48.10243,"lon":40.26013,"hidden":false,"type":"open_office"},{"id":62405,"name":"Банк \"Открытие\"(Банкомат Банк Открытие, Азс Лукойл)","rur":true,"usd":false,"eur":false,"hours":"ежедневно: круглосуточно","address":"Автодорога М-4 Дон-2, 907 Км (Справа)","lat":48.51046,"lon":40.34012,"hidden":false,"type":"open_office"},{"id":59297,"name":"Банк \"Открытие\"(Банкомат Банк «Петрокоммерц», Офис Банка)","rur":true,"usd":false,"eur":false,"hours":"ежедневно: круглосуточно","address":"Ул. Лейтенанта Шмидта, 49","lat":44.70803,"lon":37.78068,"hidden":true,"type":"open_office"},{"id":57094,"name":"Банк \"Траст\"","rur":true,"usd":false,"eur":false,"hours":"пн. - пт. с 09.00 до 18.00 суб. с 10.00 до 16.00 воск. -выходной","address":"Площадь Победы, Д. 4","lat":54.72086,"lon":20.499734,"hidden":false,"type":"open_office"},{"id":61761,"name":"Банк \"Открытие\"(Банкомат Банк «Петрокоммерц», Азс Лукойл)","rur":true,"usd":false,"eur":false,"hours":"ежедневно: круглосуточно","address":"Ростовская Область, Октябрьский Р-Н","lat":47.44796,"lon":40.13471,"hidden":true,"type":"open_office"},{"id":61205,"name":"Банк \"Открытие\"(Банкомат Ханты-Мансийский Банк, Магазин Уют)","rur":true,"usd":false,"eur":false,"hours":"ежедневно: 09:00-22:00","address":"Ул. Заречная, 15","lat":61.03388,"lon":76.10075,"hidden":false,"type":"open_office"},{"id":57039,"name":"Банк \"Траст\"(Офис Банка)","rur":true,"usd":false,"eur":false,"hours":"пн.-пт.: 10:00-19:00, сб.: 10:00-16:00, вс.: выходной","address":"Ул. Социалистическая, Д. 48/33","lat":59.12353,"lon":37.93326,"hidden":true,"type":"open_office"},{"id":57581,"name":"Банк \"Открытие\"(Ростовский Филиал Бфко)","rur":true,"usd":false,"eur":false,"hours":"круглосуточно","address":"Ул. Текучева, Д. 234","lat":47.233968,"lon":39.70311,"hidden":true,"type":"open_atm"},{"id":57007,"name":"Банк \"Открытие\"(Банкомат Нб «Траст», Офис Банка)","rur":true,"usd":false,"eur":false,"hours":"ежедневно: круглосуточно","address":"Проспект Героев Сталинграда, Д. 48","lat":48.51262,"lon":44.54521,"hidden":false,"type":"open_office"},{"id":57038,"name":"Банк \"Открытие\"(Банкомат Нб «Траст», Торговый Центр Сфера)","rur":true,"usd":false,"eur":false,"hours":"ежедневно: 08:00-23:00 ","address":"Ул. Ленина, 78б","lat":59.12626,"lon":37.91695,"hidden":false,"type":"open_office"},{"id":57106,"name":"Банк \"Траст\"","rur":true,"usd":false,"eur":false,"hours":"пн. - пт. с 10.00 до 18.00 суб., воск.-выходной","address":"Ул. Кирова, Д. 56","lat":54.513694,"lon":36.260802,"hidden":false,"type":"open_office"},{"id":60542,"name":"Банк \"Открытие\"(Банкомат Ханты-Мансийский Банк, Отделение Оао Тцавс)","rur":true,"usd":false,"eur":false,"hours":"ежедневно: 08:00-20:00","address":"Ул. Домостроителей, 18/9","lat":57.15379,"lon":65.64764,"hidden":false,"type":"open_office"},{"id":57111,"name":"Банк \"Открытие\"","rur":true,"usd":false,"eur":false,"hours":"Пн-Пт: 09.00-18.00, Сб-Вс: выходной","address":"Первомайский Район, Ул.Горбачева, Д. 48","lat":58.597378,"lon":49.67414,"hidden":false,"type":"open_office"},{"id":54414,"name":"Банкомат банка Открытие (Открытие. Офис Банка)","rur":false,"usd":false,"eur":false,"hours":"ежедневно: круглосуточно","address":"Москва, ул., Б. Никитская, д.12, стр.1","lat":55.756513,"lon":37.60646,"hidden":true,"type":"open_atm"},{"id":61211,"name":"Банк \"Открытие\"(Банкомат Ханты-Мансийский Банк, Рынок Купеческий Двор)","rur":true,"usd":false,"eur":false,"hours":"ежедневно: 08:00-20:00","address":"Ул. Строителей, 13/2","lat":61.02796,"lon":76.11239,"hidden":false,"type":"open_office"},{"id":62406,"name":"Банк \"Открытие\"(Банкомат Банк Открытие, Азс Лукойл)","rur":true,"usd":false,"eur":false,"hours":"ежедневно: 08:00-20:00","address":"Шоссе Московское, 264","lat":53.24893,"lon":50.21771,"hidden":false,"type":"open_office"},{"id":62407,"name":"Банк \"Открытие\"(Банкомат Банк Открытие, Азс Лукойл)","rur":true,"usd":false,"eur":false,"hours":"ежедневно: 08:00-20:00","address":"Ул. Ново-Садовая, 301","lat":53.23584,"lon":50.18965,"hidden":false,"type":"open_office"},{"id":62408,"name":"Банк \"Открытие\"(Банкомат Банк Открытие, Азс Лукойл)","rur":true,"usd":false,"eur":false,"hours":"ежедневно: 08:00-20:00","address":"Шоссе Самарское, 4","lat":53.13674,"lon":49.97208,"hidden":false,"type":"open_office"},{"id":57037,"name":"Банк \"Открытие\"(Банкомат Нб «Траст», Торговый Центр Рассвет)","rur":true,"usd":false,"eur":false,"hours":"ежедневно: 10:00-20:00","address":"Проспект Победы, Д. 93","lat":59.12688,"lon":37.96128,"hidden":false,"type":"open_office"},{"id":59718,"name":"Банк \"Открытие\"(Банкомат Банк«Петрокоммерц», Азс Лукойл)","rur":true,"usd":false,"eur":false,"hours":"ежедневно: круглосуточно","address":"Ул. Щорса, 111","lat":58.57774,"lon":49.58468,"hidden":true,"type":"open_office"},{"id":60546,"name":"Банк \"Открытие\"(Банкомат Ханты-Мансийский Банк, Торговый Центр Цум)","rur":true,"usd":false,"eur":false,"hours":"ежедневно: 10:00-20:00","address":"Ул. Орджоникидзе, 63/А","lat":57.14901,"lon":65.54137,"hidden":false,"type":"open_office"},{"id":57122,"name":"Банк \"Траст\"","rur":true,"usd":false,"eur":false,"hours":"пн. - пт. с 10.00 до 18.00 суб., воск.-выходной","address":"Ул.Радищева, Д. 86","lat":51.74886,"lon":36.189691,"hidden":false,"type":"open_office"},{"id":55040,"name":"Отделение банка Траст (Операционный офис № 1 в г. Раменское)","rur":false,"usd":false,"eur":false,"hours":"Пн - пт: 09:30-18:30\r\nСуббота: 10:00-16:00","address":"Михалевича ул., д. 37/2","lat":55.563763,"lon":38.241345,"hidden":true,"type":"open_office"},{"id":55039,"name":"Банкомат банка Открытие («ФК Открытие», Раменский Приборостроительный Завод)","rur":false,"usd":false,"eur":false,"hours":"Пн - вс: 06:00—22:00","address":"Михалевича ул., д. 39/5","lat":55.5656521,"lon":38.2425864,"hidden":true,"type":"open_atm"},{"id":62409,"name":"Банк \"Открытие\"(Банкомат Банк Открытие, Азс Лукойл)","rur":true,"usd":false,"eur":false,"hours":"ежедневно: 08:00-20:00","address":"Б-Р Приморский, 50","lat":53.509,"lon":49.25595,"hidden":false,"type":"open_office"},{"id":57128,"name":"Банк \"Открытие\"","rur":true,"usd":false,"eur":false,"hours":"Пн-Пт: 09.30-19.00, Сб-Вс: выходной","address":"Пр. Карла Маркса, Д.4","lat":59.373318,"lon":28.599493,"hidden":false,"type":"open_office"},{"id":57139,"name":"Банк \"Открытие\"","rur":true,"usd":false,"eur":false,"hours":"Пн-Пт: 09.30-19.00, Сб: 10.00-16.00, Вс: выходной","address":"Мкр-Н 3-Й, Д.2/3, Пом.3,4","lat":59.643518,"lon":33.532753,"hidden":false,"type":"open_office"},{"id":57125,"name":"Банк \"Траст\"","rur":true,"usd":false,"eur":false,"hours":"пн. - пт. с 10.00 до 18.00 суб.,воск. - выходной","address":"Микрорайон № 12, Ул. Воинов-Интернационалистов, Здание № 7/1","lat":52.351488,"lon":35.350162,"hidden":false,"type":"open_office"},{"id":58868,"name":"Банк \"Открытие\"(Оо \"Тихвинский)","rur":false,"usd":false,"eur":false,"hours":"","address":"М-Н 3й, Д. 2/3","lat":59.644118,"lon":33.542886,"hidden":false,"type":"open_office"},{"id":60324,"name":"Банк \"Открытие\"(Банкомат Банк«Петрокоммерц», Азс Лукойл)","rur":true,"usd":false,"eur":false,"hours":"ежедневно: 08:00-20:00","address":"Ул. Ново-Садовая, 301","lat":53.23584,"lon":50.18965,"hidden":true,"type":"open_office"},{"id":62286,"name":"Банк \"Открытие\"(Банкомат Банк Открытие, Офис Банка)","rur":true,"usd":false,"eur":false,"hours":"пн.-чт.: 09:30-18:00, пт.: 09:30-17:00, сб.-вс.: выходные","address":"Московское Ш, Д. 77","lat":53.22549,"lon":50.19368,"hidden":true,"type":"open_office"},{"id":57048,"name":"Банк \"Открытие\"(Оо \"Воронежский\")","rur":true,"usd":false,"eur":false,"hours":"круглосуточно","address":"Ул. Кольцовская, Д. 76","lat":51.660546,"lon":39.185797,"hidden":true,"type":"open_atm"},{"id":57694,"name":"Банк \"Траст\"(Офис Банка)","rur":true,"usd":false,"eur":false,"hours":"пн.-пт.: 09:00-18:00, сб.: 10:00-15:00, вс.: выходной","address":"Ул. Ленина, Д. 60","lat":52.03235,"lon":47.78146,"hidden":true,"type":"open_office"},{"id":59730,"name":"Банк \"Открытие\"(Банкомат Ханты-Мансийский Банк, Торговый Центр Рио)","rur":true,"usd":false,"eur":false,"hours":"ежедневно: 08:00-22:00","address":"Ул. Невежина, 3 Стр. 10","lat":55.42844,"lon":65.2985,"hidden":false,"type":"open_office"},{"id":54648,"name":"Банкомат банка Открытие (Ф-л ЗС ПАО ХМБО. Гипермаркет МЕГАМАРТ)","rur":false,"usd":false,"eur":false,"hours":"ежедневно: 08:00-23:00","address":"Екатеринбург, ул., Луначарского, 205","lat":56.828581,"lon":60.625709,"hidden":true,"type":"open_atm"},{"id":57146,"name":"Банк \"Открытие\"","rur":true,"usd":false,"eur":false,"hours":"Пн-Пт: 09.00-19.00, Сб-Вс: выходной","address":"Ул. Неделина, Д.15а","lat":52.598068,"lon":39.584515,"hidden":false,"type":"open_office"},{"id":56926,"name":"Банк \"Траст\"","rur":true,"usd":false,"eur":false,"hours":"пн. - пт. с 09.00 до 17.00 суб.воск.-выходной","address":"Улица Почтовая, 24","lat":44.212211,"lon":43.133336,"hidden":true,"type":"open_office"},{"id":57708,"name":"Банк \"Открытие\"(Тк \"Лазурный\")","rur":true,"usd":false,"eur":false,"hours":"ежедневно 10:00 - 21:00","address":"Пл. Ленина, Д. 4","lat":51.50258,"lon":46.118384,"hidden":true,"type":"open_atm"},{"id":59732,"name":"Банк \"Открытие\"(Банкомат Ханты-Мансийский Банк, Супермаркет Ното)","rur":true,"usd":false,"eur":false,"hours":"ежедневно: круглосуточно","address":"Ул. Конституции, 67а","lat":55.42271,"lon":65.25881,"hidden":false,"type":"open_office"},{"id":57049,"name":"Банк \"Открытие\"(Торговый Центр \"Юго-Запад\" (2 Этаж))","rur":true,"usd":false,"eur":false,"hours":"с 9-00 до 21-00","address":"Пр-Т Патриотов, Д. 3, Литера \"А\"","lat":51.644056,"lon":39.142966,"hidden":true,"type":"open_atm"},{"id":57145,"name":"Банк \"Траст\"","rur":true,"usd":false,"eur":false,"hours":"пн. - пт. с 10.00 до 19.00 суб., воск. -выходной","address":"Ул. Гагарина, Д. 35а","lat":52.616755,"lon":39.596633,"hidden":false,"type":"open_office"},{"id":57328,"name":"Банк \"Открытие\"(Банкомат Ханты-Мансийский Банк, Торговый Центр Метрополис)","rur":true,"usd":false,"eur":false,"hours":"ежедневно: 08:00-22:00","address":"Ул. Ефремова, 86/1","lat":56.091,"lon":63.63534,"hidden":false,"type":"open_office"},{"id":62410,"name":"Банк \"Открытие\"(Банкомат Банк Открытие, Азс Лукойл)","rur":true,"usd":false,"eur":false,"hours":"ежедневно: круглосуточно","address":"Ул. Пехотинцев, 8","lat":56.70133,"lon":60.5504,"hidden":false,"type":"open_office"},{"id":62412,"name":"Банк \"Открытие\"(Банкомат Банк Открытие, Азс Лукойл)","rur":true,"usd":false,"eur":false,"hours":"ежедневно: круглосуточно","address":"Ул. Маяковского, 1а","lat":56.86067,"lon":60.6138,"hidden":false,"type":"open_office"},{"id":62411,"name":"Банк \"Открытие\"(Банкомат Банк Открытие, Азс Лукойл)","rur":true,"usd":false,"eur":false,"hours":"ежедневно: круглосуточно","address":"Свердловская Обл., П. Пелым, А/Д Екатеринбург-Хмао","lat":61.05637,"lon":61.94737,"hidden":true,"type":"open_office"},{"id":57754,"name":"Банк \"Открытие\"(Магазин \"Монетка\")","rur":true,"usd":false,"eur":false,"hours":"пн-вс 09-22:00","address":"Ул. Молодежная, Д. 4","lat":57.089399,"lon":61.680483,"hidden":true,"type":"open_atm"},{"id":57182,"name":"Банк \"Открытие\"","rur":true,"usd":false,"eur":false,"hours":"Пн-Пт: 09.00-18.00, Сб-Вс: выходной","address":"Ул.Николаева, Д.17а, Пом.01","lat":55.785928,"lon":38.440411,"hidden":false,"type":"open_office"},{"id":57259,"name":"Банк \"Открытие\"","rur":true,"usd":false,"eur":false,"hours":"Пн-Пт: 10.00-19.00, Сб-Вс: выходной","address":"Пролетарский Проспект, Д.8а, Пом.2","lat":55.922061,"lon":38.000776,"hidden":false,"type":"open_office"},{"id":57156,"name":"Банк \"Траст\"","rur":true,"usd":false,"eur":false,"hours":"пн. - пт. с 10.00 до 18.00 суб.воск.-выходной","address":"Ул.Орджоникидзе, Д.40","lat":52.615267,"lon":38.520298,"hidden":false,"type":"open_office"},{"id":58875,"name":"Банк \"Открытие\"","rur":false,"usd":false,"eur":false,"hours":"","address":"Пр-Т Красной Армии, Д. 3","lat":56.29554,"lon":38.127007,"hidden":false,"type":"open_office"},{"id":57247,"name":"Банк \"Открытие\"","rur":true,"usd":false,"eur":false,"hours":"Пн-Пт: 09.00-18.00, Сб-Вс: выходной","address":"Проспект Красной Армии, Д.3","lat":56.295555,"lon":38.127061,"hidden":false,"type":"open_office"},{"id":57055,"name":"Банк \"Открытие\"(Банкомат Нб «Траст», Офис Банка)","rur":true,"usd":false,"eur":false,"hours":"пн.-пт.: 10:00-19:00, сб.-вс.: выходной","address":"Переулок Семеновского, Д. 10","lat":56.99623,"lon":40.97233,"hidden":false,"type":"open_office"},{"id":62413,"name":"Банк \"Открытие\"(Банкомат Банк Открытие, Азс Лукойл)","rur":true,"usd":false,"eur":false,"hours":"ежедневно: круглосуточно","address":"Московская Область, Д. Кореньки, М9, Слева","lat":55.97618,"lon":36.47362,"hidden":false,"type":"open_office"},{"id":58843,"name":"Банк \"Открытие\"(Гипермаркет \"Самбери\")","rur":true,"usd":false,"eur":false,"hours":"пн-вс: 8:30 - 22:00 (Общедоступен)","address":"Ул. Трехгорная, Д. 98","lat":48.546091,"lon":135.053672,"hidden":true,"type":"open_atm"},{"id":57079,"name":"Банк \"Открытие\"(Иркутскпромстройпроект)","rur":true,"usd":true,"eur":true,"hours":"ежедневно 9:00 - 21:00","address":"Ул. Степана Разина, Д. 6","lat":52.285869,"lon":104.27218,"hidden":true,"type":"open_atm"},